{"games":[{"allGuesses":[[{"playerName":"granis","playerId":"5a9406e398cc2c6744a92477","roundScoreInPoints":5000,"distanceInMeters":1.7865296852,"lat":69.41366270361544,"lng":30.3179320624032},{"playerName":"Radu C","playerId":"57d301d409f2efcce834fc94","roundScoreInPoints":5000,"distanceInMeters":2.4291831515,"lat":69.41366825359405,"lng":30.31791609174559},{"playerName":"Mapper","playerId":"556cd0402bfa312b5485ab61","roundScoreInPoints":3292,"distanceInMeters":261118.7451183659,"lat":67.16909113900209,"lng":32.186435637231675},{"playerName":"Sagittarius998","playerId":"561e6e8afeb81545584f5c42","roundScoreInPoints":4725,"distanceInMeters":35278.328991552,"lat":69.52445264208114,"lng":31.165670338776696},{"playerName":"Magyaron - GeoGuessr (YouTube)","playerId":"5c4b184898004e87dc4baa50","roundScoreInPoints":4666,"distanceInMeters":43206.156873541,"lat":69.50134667396924,"lng":31.396756530943257},{"playerName":"Simi (Twitch/Youtube)","playerId":"59fc5f5c39d8552a6c5e81a2","roundScoreInPoints":5000,"distanceInMeters":0.5360836567,"lat":69.41366022618655,"lng":30.317972350204045},{"playerName":"Kurt - Geoguessr (youtube)","playerId":"5eee48419d57a84ae09c6e61","roundScoreInPoints":4984,"distanceInMeters":1977.3539882458,"lat":69.41194333590808,"lng":30.368311949086586},{"playerName":"Raidman Mucha","playerId":"5c5c84a5da1de264500b959e","roundScoreInPoints":3806,"distanceInMeters":170422.5088907554,"lat":68.34962146256913,"lng":33.38086013599308},{"playerName":"cookie","playerId":"5ede7e46b41b6b7e7c314cf5","roundScoreInPoints":53,"distanceInMeters":2838969.0222666794,"lat":44.50111161911733,"lng":41.3123844451634},{"playerName":"Elnath","playerId":"5be57a801f3cf826908cd5ba","roundScoreInPoints":3644,"distanceInMeters":197595.2986684607,"lat":67.87929576760534,"lng":32.7814302114641},{"playerName":"Wolftrekker (YouTube)","playerId":"59a362320ee41f7e90f3ce92","roundScoreInPoints":15,"distanceInMeters":3650165.706451304,"lat":41.33257584101227,"lng":-2.4314600976617884},{"playerName":"stealthisnick","playerId":"5e9c6d8ed502e13eecc68615","roundScoreInPoints":38,"distanceInMeters":3050917.0387737397,"lat":42.210255382525425,"lng":23.43748224741774},{"playerName":"Mason Hockensmith","playerId":"5588c79e07f3546e0c49c686","roundScoreInPoints":3678,"distanceInMeters":191812.9926101696,"lat":67.95526958035695,"lng":32.85402770700864},{"playerName":"JakartaYogurt","playerId":"5c4cb5303d925b4af4b898ec","roundScoreInPoints":266,"distanceInMeters":1831781.7218628689,"lat":53.53475022564013,"lng":39.860387051846395},{"playerName":"Pierre","playerId":"5c6840eafa7cd6698082add1","roundScoreInPoints":46,"distanceInMeters":2932938.942787551,"lat":43.835471152795066,"lng":42.9127551477082},{"playerName":"FRANCESCO TOFFANIN","playerId":"5ec9718bf45d4914ac38a2f9","roundScoreInPoints":43,"distanceInMeters":2969817.7345691375,"lat":42.85806898791777,"lng":24.80090279207917},{"playerName":"Alex YP","playerId":"5edd3e697ee0fa5078a354cb","roundScoreInPoints":4078,"distanceInMeters":127369.0991609568,"lat":69.12072045117061,"lng":27.189504993326096},{"playerName":"Warren G. Harding","playerId":"5becdeaa3bac7221002eeaf0","roundScoreInPoints":43,"distanceInMeters":2977631.8385222694,"lat":42.7477966624572,"lng":25.575967550402478},{"playerName":"Orpheus","playerId":"5d4f39f41d34a0315c27c104","roundScoreInPoints":43,"distanceInMeters":2966306.4847540716,"lat":42.88684283489106,"lng":24.85345008010937},{"playerName":"deep-thot","playerId":"56f41715148a781b143b1443","roundScoreInPoints":3740,"distanceInMeters":181341.7478935082,"lat":68.18571599564046,"lng":33.28718628044359},{"playerName":"HankScorpio93","playerId":"5c13cd56dfdaaa12c09de021","roundScoreInPoints":4119,"distanceInMeters":121048.175217899,"lat":69.1024122579754,"lng":33.2638120444791},{"playerName":"Morqka1913","playerId":"5b2cebc2cead176c3829d59b","roundScoreInPoints":248,"distanceInMeters":1876064.325217083,"lat":54.032194551522124,"lng":45.51828467900876},{"playerName":"xMeRiko","playerId":"5aad9aa618399e275830579d","roundScoreInPoints":127,"distanceInMeters":2294902.177132593,"lat":48.77888442977533,"lng":29.507251353932887},{"playerName":"Geography Challenges (YouTube)","playerId":"560d1fdae6cc626bc8c51c4f","roundScoreInPoints":50,"distanceInMeters":2874007.1273621917,"lat":43.568123160090465,"lng":30.76640779747766},{"playerName":"nickydimebags","playerId":"5d6d75d06902e1e288e39b7d","roundScoreInPoints":3997,"distanceInMeters":139911.9154347876,"lat":68.68608446967124,"lng":27.446227080918096},{"playerName":"Alesn Caputo","playerId":"5faf0999baecc90001bee349","roundScoreInPoints":47,"distanceInMeters":2919547.525460626,"lat":43.37914668328511,"lng":23.697302924279466},{"playerName":"Antoine Mou\u00EBs","playerId":"5e9979ce318e4665d866c449","roundScoreInPoints":120,"distanceInMeters":2329744.149415727,"lat":48.54952121826742,"lng":26.390796498736268},{"playerName":"Costa Rica","playerId":"57743f3718aa6acda0b74283","roundScoreInPoints":2,"distanceInMeters":4918572.053566253,"lat":59.55590058601645,"lng":150.8728821623192},{"playerName":"Laban Greb","playerId":"55e36161a0d7017f50d7169f","roundScoreInPoints":4909,"distanceInMeters":11464.5938974756,"lat":69.51041361737107,"lng":30.41955736487929},{"playerName":"jwall","playerId":"5502180aa3a64425d4e14f8b","roundScoreInPoints":35,"distanceInMeters":3104592.4295578413,"lat":42.878069295281605,"lng":47.16376508767419},{"playerName":"L49 - Tall Impala","playerId":"5d78bdd41d19ab6f7052d9c2","roundScoreInPoints":2162,"distanceInMeters":523679.4667746086,"lat":64.71186619633885,"lng":31.015074368671048},{"playerName":"Omota Grati","playerId":"5bf058ca43196569e086e8c0","roundScoreInPoints":1012,"distanceInMeters":997863.9347581055,"lat":60.656415873926804,"lng":25.60323952359838},{"playerName":"Nakiro","playerId":"5e87ef372ad6cf18f4aad259","roundScoreInPoints":145,"distanceInMeters":2211871.7405745904,"lat":55.253803044384185,"lng":61.680440314021645},{"playerName":"Moogli","playerId":"5eee6aa862df1243a0cf5eed","roundScoreInPoints":1,"distanceInMeters":5459466.169076889,"lat":27.9428669400252,"lng":-15.600290899254006},{"playerName":"Nit2544","playerId":"57ab8aef45b6463228b07380","roundScoreInPoints":160,"distanceInMeters":2150424.746443525,"lat":50.88893208846923,"lng":42.022570115068106},{"playerName":"Teproc","playerId":"5f8444f6a6e6cd0001030a6c","roundScoreInPoints":86,"distanceInMeters":2540949.8090810543,"lat":46.89100890677403,"lng":22.53701986298286},{"playerName":"schludy","playerId":"55c52ef13271ebb6e0aa8275","roundScoreInPoints":82,"distanceInMeters":2566435.4140442996,"lat":55.76889394004333,"lng":72.75635761923265},{"playerName":"Aral","playerId":"5f8cab85933183000175486e","roundScoreInPoints":282,"distanceInMeters":1795962.730383197,"lat":53.28148149878224,"lng":28.60782297234327},{"playerName":"Schmeeps","playerId":"5eab3f4097d6cf4bdccbb6be","roundScoreInPoints":76,"distanceInMeters":2619214.1479732958,"lat":46.33831561056288,"lng":39.79675092209368},{"playerName":"Das Phantom","playerId":"57bee5777508373e8878b02a","roundScoreInPoints":192,"distanceInMeters":2037208.9690758025,"lat":51.22738725364241,"lng":25.629414598623825},{"playerName":"Mojihal","playerId":"5a33a1b3fed410625081981e","roundScoreInPoints":46,"distanceInMeters":2930947.680573895,"lat":43.79529005578942,"lng":42.44245712517034},{"playerName":"Iza123","playerId":"5b3c1b80f65f8d3f044badd0","roundScoreInPoints":35,"distanceInMeters":3091820.7267621504,"lat":42.83622626635783,"lng":46.16018342688896},{"playerName":"Tom Lennak","playerId":"5d6a8a016902e1e288e36e50","roundScoreInPoints":154,"distanceInMeters":2173327.4736940907,"lat":49.88096834488308,"lng":28.863437681034853},{"playerName":"Linus","playerId":"5ffb60b475d2770001545e8b","roundScoreInPoints":126,"distanceInMeters":2299923.4070580355,"lat":48.73052695179449,"lng":30.633469648605285},{"playerName":"Mitshl","playerId":"5d1f1ff88a19a971e8ff5bbe","roundScoreInPoints":1,"distanceInMeters":5571142.242018583,"lat":50.83698434907532,"lng":142.6636208408477},{"playerName":"RadoX1988 (Youtube)","playerId":"587fe18d8b9ff497a480f6ae","roundScoreInPoints":109,"distanceInMeters":2392102.7882747254,"lat":48.12322231333219,"lng":24.022377710236906},{"playerName":"Freek Joosten","playerId":"5fbc072a24491b00010e9687","roundScoreInPoints":76,"distanceInMeters":2618330.496425957,"lat":45.91342141111591,"lng":27.354345667877944},{"playerName":"Closed247","playerId":"553904af3254173ba0c68d07","roundScoreInPoints":34,"distanceInMeters":3122719.855698956,"lat":41.63551443259989,"lng":22.417116592333045},{"playerName":"Toni Bauer","playerId":"5bed65c7b5b94b1f18f78bf5","roundScoreInPoints":57,"distanceInMeters":2797626.865054238,"lat":44.851604111233634,"lng":41.08066098219659},{"playerName":"Ministry of Primary Resources","playerId":"5d4ead1595bbda54e4d9b5a2","roundScoreInPoints":32,"distanceInMeters":3164219.975754209,"lat":41.02968319084985,"lng":26.455459797992262},{"playerName":"SuzukiTruck","playerId":"5d4d5d831d34a0315c277ad7","roundScoreInPoints":3178,"distanceInMeters":283087.6718238417,"lat":68.1397955970068,"lng":24.223832653249485},{"playerName":"SkydivingFerret","playerId":"560ebcc849145e39e865e8a6","roundScoreInPoints":39,"distanceInMeters":3037159.598986784,"lat":42.60581952223586,"lng":20.209142422371794},{"playerName":"jajoha","playerId":"5d3af7e024ec173888d44466","roundScoreInPoints":177,"distanceInMeters":2087208.5530455057,"lat":51.97147812886413,"lng":45.138124990062245},{"playerName":"NicoTM","playerId":"54d5ec25ab462aac88f37650","roundScoreInPoints":138,"distanceInMeters":2243647.478721286,"lat":49.85649429991952,"lng":40.65598872054778},{"playerName":"slashP","playerId":"5e99af0a97d6cf5854da8470","roundScoreInPoints":3407,"distanceInMeters":239715.4180235682,"lat":67.39160696062153,"lng":32.35109287979448},{"playerName":"Peter Humann","playerId":"5752fa8900a27f6f482a26e8","roundScoreInPoints":1265,"distanceInMeters":858816.2865356703,"lat":61.79159734533773,"lng":27.261600070021846},{"playerName":"PatriotsFTW","playerId":"55e6859c4f5a3ac2a08f59bd","roundScoreInPoints":45,"distanceInMeters":2937339.5530869267,"lat":44.151133135314105,"lng":45.474045817418045},{"playerName":"Pa Geography (YOUTUBE)","playerId":"5a9491773bc43ca2605819ce","roundScoreInPoints":137,"distanceInMeters":2246259.86073986,"lat":56.63920592145559,"lng":66.23394960110923},{"playerName":"Altingwouk","playerId":"563954fefeb8152b140f7d50","roundScoreInPoints":18,"distanceInMeters":3504225.751945481,"lat":40.03167437426893,"lng":8.745934082137653},{"playerName":"YYYYY","playerId":"5f9d56a28d146900013381ed","roundScoreInPoints":147,"distanceInMeters":2204798.54642225,"lat":49.59184750757767,"lng":29.272315695192507},{"playerName":"Hilari Mu\u00F1oz","playerId":"5ef77f315f12bd824412d55c","roundScoreInPoints":205,"distanceInMeters":1996274.122643225,"lat":51.704247083873476,"lng":36.58305260878334},{"playerName":"Alessandro Puglia","playerId":"5ee5693b9d0ad24fd05b3f24","roundScoreInPoints":174,"distanceInMeters":2097011.679732347,"lat":64.7472889794837,"lng":-18.059107116162703},{"playerName":"Calamityx7 (YouTube)","playerId":"5a4416461cbd1557001a0de9","roundScoreInPoints":1,"distanceInMeters":5446031.218109647,"lat":28.35727831481178,"lng":-16.506648046749202},{"playerName":"NSJ","playerId":"5eff39a44fc569935426f9eb","roundScoreInPoints":33,"distanceInMeters":3140963.5054734494,"lat":55.831333517110394,"lng":87.73089228874493},{"playerName":"Knud","playerId":"5e3fd81ae9473f7b28bc8c2f","roundScoreInPoints":142,"distanceInMeters":2224335.5878178077,"lat":64.80107267887497,"lng":-21.46525203339203},{"playerName":"blockchain prenup","playerId":"590ab19cb979e3c788527f5f","roundScoreInPoints":230,"distanceInMeters":1923089.1533863577,"lat":53.41806386370495,"lng":44.620133871745956},{"playerName":"JesseBear","playerId":"56111858acdaa1481c515db8","roundScoreInPoints":41,"distanceInMeters":2999889.371440406,"lat":42.700566109831264,"lng":23.020587053670123},{"playerName":"Wh Venom","playerId":"6007461273cc03000160e61d","roundScoreInPoints":112,"distanceInMeters":2371630.986965473,"lat":49.28185604548962,"lng":15.731081385194843},{"playerName":"Noemii Ven","playerId":"5c4739e93d925b4af4b71007","roundScoreInPoints":8,"distanceInMeters":4033435.7668516734,"lat":38.405058748128624,"lng":-5.063540411148706},{"playerName":"MJorgen00","playerId":"5add22a0582de23664deb5f0","roundScoreInPoints":620,"distanceInMeters":1304574.7595576541,"lat":57.98077814496842,"lng":36.399826668569645},{"playerName":"Ben Keller","playerId":"586f07790eac72086c34a57b","roundScoreInPoints":301,"distanceInMeters":1755967.0664377434,"lat":55.1498711348197,"lng":45.392982926443366},{"playerName":"Mister Blue (Youtube Channel)","playerId":"5cda05c88701a8aa94a42a06","roundScoreInPoints":819,"distanceInMeters":1130379.471084417,"lat":60.38999024360105,"lng":41.54106512480423},{"playerName":"HugoAlvara2","playerId":"5e8609cb3d4b6a3cf8dcfc9c","roundScoreInPoints":1534,"distanceInMeters":738197.6862761526,"lat":63.338417209346865,"lng":37.05359831305212},{"playerName":"Markus","playerId":"56ea88b8148a781b143aec68","roundScoreInPoints":17,"distanceInMeters":3556631.4836141635,"lat":41.53566320599731,"lng":0.10046411595716176},{"playerName":"hee hee I am micheal jackson","playerId":"5f0bb6300bd1e046649c4436","roundScoreInPoints":60,"distanceInMeters":2766103.643370967,"lat":45.048095137101164,"lng":40.23605635809152},{"playerName":"Xandi4","playerId":"5f27501b58a30e00019fc7f4","roundScoreInPoints":1,"distanceInMeters":5477633.018032953,"lat":55.8861532113733,"lng":158.70240924601276},{"playerName":"Flavdsv","playerId":"5bc387b1fdd59823e4fac52a","roundScoreInPoints":39,"distanceInMeters":3027367.1882189503,"lat":43.225059132698426,"lng":44.79512600549074},{"playerName":"SovietSpy","playerId":"5d47e78824ec173888d68999","roundScoreInPoints":491,"distanceInMeters":1449350.2503142005,"lat":57.11454461718039,"lng":40.16695574499405},{"playerName":"Mixhond","playerId":"6005591ea5ecaa0001488da5","roundScoreInPoints":132,"distanceInMeters":2270163.778136083,"lat":48.99979284838339,"lng":30.93560551206427},{"playerName":"MrYamazaky","playerId":"54a5e52fa737a7ab64a2d557","roundScoreInPoints":45,"distanceInMeters":2941220.2299897694,"lat":43.08076697203577,"lng":25.47608859003314},{"playerName":"BOKSA","playerId":"5b6ae3177135fa0e48b4df1f","roundScoreInPoints":166,"distanceInMeters":2128920.3815063126,"lat":50.349370125480725,"lng":34.0106946706595},{"playerName":"whereisalex","playerId":"5d4971123b4b6a4968627ca4","roundScoreInPoints":18,"distanceInMeters":3521044.2975727553,"lat":42.23164693799317,"lng":-1.2104001054863156},{"playerName":"Jonny Tickle","playerId":"5a8bf81042305f3fd4f52ecf","roundScoreInPoints":51,"distanceInMeters":2869186.841963102,"lat":43.64116169394952,"lng":27.864762009673807},{"playerName":"utilisateurinconnu","playerId":"5fb06413a07ff60001fe92fc","roundScoreInPoints":32,"distanceInMeters":3159083.6246414655,"lat":41.42561571800951,"lng":20.99494875738582},{"playerName":"Giovanni1798p","playerId":"585ab14c0eac725eb84e625e","roundScoreInPoints":171,"distanceInMeters":2108894.204807078,"lat":54.96979774590163,"lng":57.7407776488983},{"playerName":"Simerodge (Twitch)","playerId":"56b63c594da173bbf412746f","roundScoreInPoints":7,"distanceInMeters":4065631.57317177,"lat":37.54867323164794,"lng":-3.101712614757095},{"playerName":"Daniel Latosinski","playerId":"597e1fb3a237ab6bf0b368a2","roundScoreInPoints":2837,"distanceInMeters":353951.74703489,"lat":66.8934203397804,"lng":25.08276699643705},{"playerName":"Equinox772","playerId":"5cc1545b8701a898fc423332","roundScoreInPoints":1,"distanceInMeters":5340889.785968538,"lat":28.552203901207587,"lng":-13.919712334939353},{"playerName":"Dfaridchavana","playerId":"5acd6068582de23c50e2bd71","roundScoreInPoints":76,"distanceInMeters":2617915.194929019,"lat":46.78681204029432,"lng":17.21034318270441},{"playerName":"The59Soundbite","playerId":"54a7420ba737a7ab64a2d7cc","roundScoreInPoints":656,"distanceInMeters":1268455.4995497447,"lat":58.10854122454844,"lng":33.8448175903737},{"playerName":"Myck","playerId":"554641fe325417fc783d3ef3","roundScoreInPoints":35,"distanceInMeters":3103442.6014016992,"lat":41.78492053177743,"lng":22.745506751392256},{"playerName":"(\u0E07 \u0360\u00B0 \u035F\u0644\u035C \u0361\u00B0)\u0E07","playerId":"5ef922a47410d364c0f4573f","roundScoreInPoints":9,"distanceInMeters":3979231.5992510207,"lat":38.04672507396604,"lng":-1.903754214257185},{"playerName":"GUGGE","playerId":"5e5af0ef26bbda0a34329e06","roundScoreInPoints":35,"distanceInMeters":3093208.192358201,"lat":41.902699614118085,"lng":22.412499889668403},{"playerName":"Loic13130","playerId":"5aef2d8f2a3e0d46243dd1bc","roundScoreInPoints":160,"distanceInMeters":2150422.988259022,"lat":50.17574274054551,"lng":26.19068013977909},{"playerName":"Suzan Dragon","playerId":"5ffe47e62c6fdf000156ed4d","roundScoreInPoints":8,"distanceInMeters":4011781.122962215,"lat":39.089003263410596,"lng":67.32330824691144},{"playerName":"Among Us Drip","playerId":"59563435dbd032c678aecbae","roundScoreInPoints":18,"distanceInMeters":3526476.9531916026,"lat":43.23478105621382,"lng":-4.842914101884632},{"playerName":"Alex D","playerId":"5dd9bd4c6a1dd6b1d4e391fe","roundScoreInPoints":31,"distanceInMeters":3183977.1960228956,"lat":41.18068368399183,"lng":21.213405622535642},{"playerName":"Kuba Gw\u00F3\u017Ad\u017A","playerId":"5eeab5d4c40eff35508b636d","roundScoreInPoints":1590,"distanceInMeters":715604.0766676781,"lat":66.83244083934828,"lng":14.426455861205927},{"playerName":"Kevin Croner","playerId":"5cd01b626cca66315479c590","roundScoreInPoints":692,"distanceInMeters":1235084.9469217737,"lat":66.60370917228423,"lng":59.338070690269205},{"playerName":"vulkanisch","playerId":"5f0f948d0624d4374c1f0594","roundScoreInPoints":211,"distanceInMeters":1978094.1542297115,"lat":53.80770291818513,"lng":49.007719917323705},{"playerName":"Ionica Meseri","playerId":"5aa5782542305f89a0f9f17c","roundScoreInPoints":35,"distanceInMeters":3104594.405966319,"lat":41.518228245250285,"lng":28.067746406802783},{"playerName":"llub888","playerId":"5ef0386f0e480c71c86abcb6","roundScoreInPoints":48,"distanceInMeters":2907612.234769871,"lat":43.49299095478878,"lng":23.607609407591646},{"playerName":"Shumi Oboloso","playerId":"5ef46c28f5a9c52d9061095f","roundScoreInPoints":34,"distanceInMeters":3115141.806692654,"lat":41.435221858695236,"lng":27.581105983621033},{"playerName":"Ben F.","playerId":"5e7ea0d5cd30753eb4bea86b","roundScoreInPoints":671,"distanceInMeters":1254957.3288467622,"lat":62.093142274388725,"lng":9.07062048463294},{"playerName":"snowfall!","playerId":"5e3711ede9473f5ec8dc5767","roundScoreInPoints":48,"distanceInMeters":2904601.634875802,"lat":43.575136711378626,"lng":22.842530404197806},{"playerName":"Lamajaestadesnuda","playerId":"5e8898183d4b6a5f98da4d07","roundScoreInPoints":23,"distanceInMeters":3375825.3631930277,"lat":39.99280321448948,"lng":16.17603051931753},{"playerName":"C\u00FCplidude","playerId":"5e85fd282ad6cf5728cb7805","roundScoreInPoints":44,"distanceInMeters":2955285.245611822,"lat":42.945184452911796,"lng":25.660710511724893},{"playerName":"Emil Hofman","playerId":"55407a150b70ea1c90fb6eb2","roundScoreInPoints":8,"distanceInMeters":4004385.4276422425,"lat":37.98074145980076,"lng":-2.5480840184894116},{"playerName":"Mvem","playerId":"57b9377d177ccfcb041372f4","roundScoreInPoints":49,"distanceInMeters":2891522.8278974337,"lat":43.70024078534204,"lng":22.752885279126378},{"playerName":"Bwliu","playerId":"5e77c3a6cd30757430fe1fb0","roundScoreInPoints":32,"distanceInMeters":3160941.5886588213,"lat":41.000448079016614,"lng":32.002981054137386},{"playerName":"Zatsura Hoover","playerId":"5ffc70238527e00001055111","roundScoreInPoints":67,"distanceInMeters":2692424.091750353,"lat":48.128640059483295,"lng":6.636362042577506},{"playerName":"Seppo","playerId":"59caa5c7d8fe1d5b3063fbf1","roundScoreInPoints":12,"distanceInMeters":3754346.341072536,"lat":40.28219807953619,"lng":-2.245274651034914},{"playerName":"Totem","playerId":"567acc679638a144acb018fc","roundScoreInPoints":206,"distanceInMeters":1992403.256730436,"lat":51.55575558552112,"lng":33.43168444515554},{"playerName":"Freddo","playerId":"5fece05555afe7000183e3f1","roundScoreInPoints":43,"distanceInMeters":2965155.6898931284,"lat":45.44892837189245,"lng":6.992933501183476},{"playerName":"MaxFI","playerId":"56d469dce5cc36a0088ade7d","roundScoreInPoints":67,"distanceInMeters":2695153.6687532794,"lat":46.136715956283446,"lng":43.844172137475134},{"playerName":"Tomvdb98","playerId":"568357b8b19e82f958d49620","roundScoreInPoints":1,"distanceInMeters":5468560.485486817,"lat":27.887345922327658,"lng":-15.70003136640401},{"playerName":"Gweilowizard","playerId":"5988a813fdab8f163023ea10","roundScoreInPoints":15,"distanceInMeters":3639382.101254757,"lat":42.53844021211757,"lng":-6.161939322714405},{"playerName":"Gamerrg16","playerId":"5e84b3a03d4b6a64e0286c13","roundScoreInPoints":59,"distanceInMeters":2768600.6112281713,"lat":44.640486181198604,"lng":25.403933088606173},{"playerName":"Svedka Katrip","playerId":"5d9bbb62df1dd6c514ca9f61","roundScoreInPoints":252,"distanceInMeters":1867069.2594658155,"lat":53.151832230410875,"lng":39.3714095587102},{"playerName":"Julian Neeleman","playerId":"5e48124112777c7d34a180bc","roundScoreInPoints":120,"distanceInMeters":2330792.7208426567,"lat":48.46716871185718,"lng":31.932376064798063},{"playerName":"Benjamin Hacker","playerId":"5ffef24a720e43000190c081","roundScoreInPoints":714,"distanceInMeters":1216136.1591948713,"lat":58.67908581519775,"lng":25.432410311595923},{"playerName":"Essam Faltas","playerId":"5ff5eff123c6b300011323bf","roundScoreInPoints":781,"distanceInMeters":1160284.5375557248,"lat":59.104241569710204,"lng":26.533902609713973},{"playerName":"Actuary Superb","playerId":"5e857f082ad6cf0108e5b64e","roundScoreInPoints":61,"distanceInMeters":2755811.7138092797,"lat":45.21833928597946,"lng":40.95502863170153},{"playerName":"Kobeatss","playerId":"5f4d295526ac9800018a1229","roundScoreInPoints":41,"distanceInMeters":2995432.6392504303,"lat":43.06715216817417,"lng":19.41875979844835},{"playerName":"Carlos Omse","playerId":"5f191412955ae60001d90d81","roundScoreInPoints":48,"distanceInMeters":2905413.9253492462,"lat":43.490873325670236,"lng":23.93912835885908},{"playerName":"Mahbows","playerId":"5674230b9638a165744d848a","roundScoreInPoints":43,"distanceInMeters":2975787.678520071,"lat":42.71404164960641,"lng":26.792501467807057},{"playerName":"13374269666","playerId":"5b675cd171daa40ad0bdeb71","roundScoreInPoints":38,"distanceInMeters":3053727.792351567,"lat":42.19378296047277,"lng":23.307585327054955},{"playerName":"_rossi","playerId":"5ff231ef2fbd2f0001e51a72","roundScoreInPoints":145,"distanceInMeters":2211584.766507351,"lat":49.8794633847609,"lng":38.106370660525194},{"playerName":"jakie","playerId":"5644402155660c3334065a40","roundScoreInPoints":564,"distanceInMeters":1362998.9740290397,"lat":57.37539360672935,"lng":25.032317932639334},{"playerName":"orava","playerId":"60018bb6272d450001a85d1d","roundScoreInPoints":48,"distanceInMeters":2901455.027244871,"lat":43.59424656277575,"lng":22.966934066568587},{"playerName":"Kuba R\u00F6zpruwacz","playerId":"57586922c3eb4f2fd408b99b","roundScoreInPoints":58,"distanceInMeters":2780329.78020743,"lat":44.93396984061707,"lng":40.38279634426009},{"playerName":"Koviho (Twitch)","playerId":"56b3532e4da173bbf41266cb","roundScoreInPoints":36,"distanceInMeters":3076131.4688205654,"lat":42.0417809797102,"lng":22.61213764629202},{"playerName":"Ben Dez","playerId":"5d468dd724ec173888d651f2","roundScoreInPoints":12,"distanceInMeters":3763251.291783068,"lat":41.05170121461843,"lng":-5.224826414393129},{"playerName":"TeddyFerrand","playerId":"5f0f9d7d35d07c3f986e1a9e","roundScoreInPoints":44,"distanceInMeters":2963726.918285498,"lat":43.63516493149343,"lng":43.53970269999521},{"playerName":"FFF","playerId":"5d7f8f6eea473fb5ecd26160","roundScoreInPoints":280,"distanceInMeters":1801189.9541602232,"lat":54.26848179294145,"lng":42.944287484749566},{"playerName":"Lenn the Man","playerId":"5b4899f5b56fe41a1831bba4","roundScoreInPoints":1,"distanceInMeters":5281395.147187034,"lat":29.02631710848561,"lng":-13.617327100575944},{"playerName":"Philipp Zorn","playerId":"5a4a3a173e8e0370a8f68b95","roundScoreInPoints":396,"distanceInMeters":1584339.4897353628,"lat":55.209913478646925,"lng":27.81695023147212},{"playerName":"Marcative","playerId":"600885dd8b224300016f9e0c","roundScoreInPoints":270,"distanceInMeters":1824436.444509442,"lat":53.368940262791085,"lng":37.76474652287795},{"playerName":"GeoGuruYT","playerId":"5f4c25038c3ef000010ace88","roundScoreInPoints":618,"distanceInMeters":1306405.6797338666,"lat":58.031451126210754,"lng":37.04776726117245},{"playerName":"Mara44","playerId":"5cdf0526bc79e1967470aad3","roundScoreInPoints":47,"distanceInMeters":2912716.7424760354,"lat":43.47109292401117,"lng":23.25990030302215},{"playerName":"Tymur Schoolota","playerId":"5d84e5dcee473f9c08be25f8","roundScoreInPoints":1,"distanceInMeters":5286835.832479105,"lat":29.010240890384637,"lng":-13.733913019596685},{"playerName":"Noahleise","playerId":"5baa42c8a8e5d55294d5af14","roundScoreInPoints":21,"distanceInMeters":3414433.1924148463,"lat":39.111623671618204,"lng":39.61695156620661},{"playerName":"\uD835\uDE3F\uD835\uDE40\uD835\uDE3C\uD835\uDE3F\uD835\uDE48\uD835\uDE3C\uD835\uDE49","playerId":"5f3a0573ef41f70001142a79","roundScoreInPoints":136,"distanceInMeters":2253184.779836223,"lat":49.15329925947971,"lng":31.038935465771342},{"playerName":"schm1ngo","playerId":"5b58d90371daa40fccbde7ed","roundScoreInPoints":66,"distanceInMeters":2707132.2699988224,"lat":46.35311261399983,"lng":45.9858062361455},{"playerName":"Madeleineiro","playerId":"5ee8a7d403f80c500c7d271e","roundScoreInPoints":181,"distanceInMeters":2071917.7170572411,"lat":64.19752358101442,"lng":-16.479806597060065},{"playerName":"\u822A","playerId":"5fdad91853f96b0001c7e0e8","roundScoreInPoints":13,"distanceInMeters":3697097.9722489063,"lat":40.478648047343675,"lng":-0.9594390134555164},{"playerName":"Iamaf15h","playerId":"570c01878be465698458a366","roundScoreInPoints":38,"distanceInMeters":3043003.0054923603,"lat":42.29575298838531,"lng":23.23446864372668},{"playerName":"Miruna Carp","playerId":"5e77513bb3ec1744b45eafe8","roundScoreInPoints":0,"distanceInMeters":11627377.453090707,"lat":-10.8114236335444,"lng":-72.38061575923567},{"playerName":"cai94","playerId":"5c0d2dc24319658eb00059fb","roundScoreInPoints":233,"distanceInMeters":1914627.7696737973,"lat":53.45325341295365,"lng":44.3748770060155},{"playerName":"William Sawatzky","playerId":"5b8d77231ee0107188679c27","roundScoreInPoints":160,"distanceInMeters":2149425.2105949596,"lat":50.11569121768263,"lng":32.64724784926672},{"playerName":"Meirelesleo01","playerId":"600484365a43d90001a9b918","roundScoreInPoints":262,"distanceInMeters":1842872.4283174695,"lat":53.807525997049076,"lng":18.132028934950757},{"playerName":"Advisory","playerId":"5d537e8924ec173888d844fd","roundScoreInPoints":18,"distanceInMeters":3517074.9957345068,"lat":52.6200864987288,"lng":90.05867619789514},{"playerName":"Elling Bak\u00E5s","playerId":"5ed41d4493122b841c19e7ab","roundScoreInPoints":2427,"distanceInMeters":451595.5116803055,"lat":68.9293597492889,"lng":18.96062537780781},{"playerName":"Kopdog","playerId":"5e7e2962cd30750a50cc3636","roundScoreInPoints":11,"distanceInMeters":3822087.4550504233,"lat":51.160850193214856,"lng":94.44985914074834},{"playerName":"Karciarz","playerId":"5cca38e99309606444f2e413","roundScoreInPoints":49,"distanceInMeters":2887564.089172549,"lat":43.65845239150887,"lng":23.84093683708973},{"playerName":"Chilovechno Moloko","playerId":"600839c66465630001b08ba2","roundScoreInPoints":880,"distanceInMeters":1085465.8087310912,"lat":61.80185665888687,"lng":45.325766551220866},{"playerName":"Dariamangia","playerId":"5fd4a64b2eec7c00015bb172","roundScoreInPoints":383,"distanceInMeters":1605258.114808187,"lat":55.32169169904471,"lng":37.294654406623806},{"playerName":"Dominik Reuab","playerId":"5ffeacec720e430001908f29","roundScoreInPoints":9,"distanceInMeters":3965194.7803240097,"lat":38.58198206343962,"lng":-3.3798903802713864},{"playerName":"Ryan Kurt","playerId":"5d2b1d613d4b6a6554c11f02","roundScoreInPoints":62,"distanceInMeters":2745981.8712910623,"lat":45.141530082494825,"lng":39.327845316149244},{"playerName":"Jan","playerId":"600212c78eb37000018aa641","roundScoreInPoints":25,"distanceInMeters":3298531.745718392,"lat":39.74966579264941,"lng":30.611166177695303},{"playerName":"Joey Wong","playerId":"6004a15d8eb37000018c6cf5","roundScoreInPoints":0,"distanceInMeters":8042756.642372996,"lat":0,"lng":0},{"playerName":"Hiyam100","playerId":"57704407813a4f985c966982","roundScoreInPoints":9,"distanceInMeters":3916423.7753349375,"lat":38.77706553102645,"lng":-2.3978359468568122},{"playerName":"Mazen Darwish","playerId":"5b43a904cead176c382bdccf","roundScoreInPoints":57,"distanceInMeters":2798892.2568363072,"lat":46.816685638419315,"lng":7.8978252788378445},{"playerName":"Alabayz","playerId":"5aa2507442305f89a0f960aa","roundScoreInPoints":14,"distanceInMeters":3670123.5879322314,"lat":37.50666130740424,"lng":14.702378116584516},{"playerName":"Danwinks25","playerId":"6005aeaa73cc0300015fb336","roundScoreInPoints":257,"distanceInMeters":1854736.0206536965,"lat":53.73646341542878,"lng":17.88587339112944},{"playerName":"DT","playerId":"58e8bd5e27c28b8514338af7","roundScoreInPoints":224,"distanceInMeters":1941312.1144427275,"lat":65.12663545682908,"lng":-14.654990169432564},{"playerName":"Aptx14","playerId":"548a20e5a737a7720c39adc7","roundScoreInPoints":66,"distanceInMeters":2708311.801289812,"lat":60.10440551728878,"lng":85.75568113267606},{"playerName":"Michalmazurekpl","playerId":"5a8217355eefed5f141fb4bf","roundScoreInPoints":134,"distanceInMeters":2261604.913423585,"lat":50.05567122636007,"lng":43.349436057269465},{"playerName":"Sohail","playerId":"598ddbec17631e7414584a34","roundScoreInPoints":216,"distanceInMeters":1962017.471693312,"lat":51.77373281422405,"lng":29.43220173745587},{"playerName":"Franzhaagen","playerId":"5f4991a60088410001ca3689","roundScoreInPoints":102,"distanceInMeters":2429443.575040818,"lat":47.8052538029347,"lng":23.747072126672048},{"playerName":"R Lucik13","playerId":"5f0d52998551644f80322c8f","roundScoreInPoints":136,"distanceInMeters":2250867.5928529985,"lat":49.212604468645125,"lng":27.643301474172983},{"playerName":"IRONTNT","playerId":"5fff0693d6d8a80001644dd7","roundScoreInPoints":128,"distanceInMeters":2289497.0409096126,"lat":49.841509828825515,"lng":16.99919144962253},{"playerName":"Dr. Hausig","playerId":"5ef7c87935b56c5538c78103","roundScoreInPoints":507,"distanceInMeters":1429666.9251653568,"lat":56.57777215703837,"lng":31.996340845817627},{"playerName":"Raul Oprescu","playerId":"600198bb5ee376000188ccd3","roundScoreInPoints":125,"distanceInMeters":2306315.679271682,"lat":49.9001302153399,"lng":15.658304846769129},{"playerName":"Tiggyvamp","playerId":"56331f555b41f8646cf85123","roundScoreInPoints":38,"distanceInMeters":3049740.2542139925,"lat":44.86140333120929,"lng":6.072323948014464},{"playerName":"Kadir Uslu","playerId":"5e9ac8256ea5101658218d7b","roundScoreInPoints":77,"distanceInMeters":2604939.3469427964,"lat":47.3737243920229,"lng":14.205560009166334},{"playerName":"ConnoR \\\\","playerId":"5e244f9b22bbda424481f943","roundScoreInPoints":271,"distanceInMeters":1820346.8860645727,"lat":57.75211458812398,"lng":56.946786977825546}],[{"playerName":"granis","playerId":"5a9406e398cc2c6744a92477","roundScoreInPoints":4974,"distanceInMeters":3198.5596638814,"lat":43.91806285249403,"lng":12.438697301519314},{"playerName":"Radu C","playerId":"57d301d409f2efcce834fc94","roundScoreInPoints":4494,"distanceInMeters":66672.2864243678,"lat":43.344138172156605,"lng":12.19386702401539},{"playerName":"Mapper","playerId":"556cd0402bfa312b5485ab61","roundScoreInPoints":4707,"distanceInMeters":37702.6571069596,"lat":43.614679656209816,"lng":12.24023561770092},{"playerName":"Sagittarius998","playerId":"561e6e8afeb81545584f5c42","roundScoreInPoints":4275,"distanceInMeters":97902.2294941226,"lat":43.03364567007883,"lng":12.620065181241026},{"playerName":"Magyaron - GeoGuessr (YouTube)","playerId":"5c4b184898004e87dc4baa50","roundScoreInPoints":4971,"distanceInMeters":3621.6947036551,"lat":43.93577594209681,"lng":12.452707559515499},{"playerName":"Simi (Twitch/Youtube)","playerId":"59fc5f5c39d8552a6c5e81a2","roundScoreInPoints":4977,"distanceInMeters":2837.8541583769,"lat":43.93188261945223,"lng":12.464015277028361},{"playerName":"Kurt - Geoguessr (youtube)","playerId":"5eee48419d57a84ae09c6e61","roundScoreInPoints":3428,"distanceInMeters":235803.4151136513,"lat":41.941949883514766,"lng":13.562098155690533},{"playerName":"Raidman Mucha","playerId":"5c5c84a5da1de264500b959e","roundScoreInPoints":3881,"distanceInMeters":158328.113772573,"lat":42.53878695141889,"lng":13.012922625100192},{"playerName":"cookie","playerId":"5ede7e46b41b6b7e7c314cf5","roundScoreInPoints":4977,"distanceInMeters":2864.8565321651,"lat":43.93363956292777,"lng":12.475817166743584},{"playerName":"Elnath","playerId":"5be57a801f3cf826908cd5ba","roundScoreInPoints":4059,"distanceInMeters":130272.6967740092,"lat":42.75769678754257,"lng":12.782443129030154},{"playerName":"Wolftrekker (YouTube)","playerId":"59a362320ee41f7e90f3ce92","roundScoreInPoints":4977,"distanceInMeters":2911.4606126791,"lat":43.93391672889016,"lng":12.472252796751304},{"playerName":"stealthisnick","playerId":"5e9c6d8ed502e13eecc68615","roundScoreInPoints":4141,"distanceInMeters":117718.9342344092,"lat":42.86026887096887,"lng":12.265971654430889},{"playerName":"Mason Hockensmith","playerId":"5588c79e07f3546e0c49c686","roundScoreInPoints":2007,"distanceInMeters":570412.2505589324,"lat":47.39401816392929,"lng":7.088027622373261},{"playerName":"JakartaYogurt","playerId":"5c4cb5303d925b4af4b898ec","roundScoreInPoints":4975,"distanceInMeters":3181.1088979956,"lat":43.934401236517836,"lng":12.46116170162379},{"playerName":"Pierre","playerId":"5c6840eafa7cd6698082add1","roundScoreInPoints":4596,"distanceInMeters":52679.6832441575,"lat":43.88042208859286,"lng":11.819710686056855},{"playerName":"FRANCESCO TOFFANIN","playerId":"5ec9718bf45d4914ac38a2f9","roundScoreInPoints":4478,"distanceInMeters":68825.2866538313,"lat":44.15833801179026,"lng":11.688731376302872},{"playerName":"Alex YP","playerId":"5edd3e697ee0fa5078a354cb","roundScoreInPoints":2558,"distanceInMeters":418715.172338726,"lat":40.86360554539524,"lng":15.47805928656138},{"playerName":"Warren G. Harding","playerId":"5becdeaa3bac7221002eeaf0","roundScoreInPoints":4671,"distanceInMeters":42574.2501722532,"lat":43.526371925610384,"lng":12.52090423656587},{"playerName":"Orpheus","playerId":"5d4f39f41d34a0315c27c104","roundScoreInPoints":3292,"distanceInMeters":261144.9237421835,"lat":46.11652739692469,"lng":13.605696285621999},{"playerName":"deep-thot","playerId":"56f41715148a781b143b1443","roundScoreInPoints":2002,"distanceInMeters":571849.8631730955,"lat":45.704860922946324,"lng":5.681339635582825},{"playerName":"HankScorpio93","playerId":"5c13cd56dfdaaa12c09de021","roundScoreInPoints":4107,"distanceInMeters":122925.0131126583,"lat":42.8048397136109,"lng":12.57731870110189},{"playerName":"Morqka1913","playerId":"5b2cebc2cead176c3829d59b","roundScoreInPoints":2486,"distanceInMeters":436617.3230070202,"lat":40.711975136713505,"lng":9.389604618851743},{"playerName":"xMeRiko","playerId":"5aad9aa618399e275830579d","roundScoreInPoints":3184,"distanceInMeters":281881.221320564,"lat":45.630082574961676,"lng":9.855367254169769},{"playerName":"Geography Challenges (YouTube)","playerId":"560d1fdae6cc626bc8c51c4f","roundScoreInPoints":4425,"distanceInMeters":76339.8193198868,"lat":43.31071818869233,"lng":12.943873724232844},{"playerName":"nickydimebags","playerId":"5d6d75d06902e1e288e39b7d","roundScoreInPoints":1901,"distanceInMeters":604322.9363453386,"lat":47.144455737633045,"lng":6.239156191275059},{"playerName":"Alesn Caputo","playerId":"5faf0999baecc90001bee349","roundScoreInPoints":3977,"distanceInMeters":143058.4999977998,"lat":43.92444532239367,"lng":10.690151319352456},{"playerName":"Antoine Mou\u00EBs","playerId":"5e9979ce318e4665d866c449","roundScoreInPoints":3837,"distanceInMeters":165440.7989381243,"lat":45.016386991067954,"lng":11.08544517951453},{"playerName":"Costa Rica","playerId":"57743f3718aa6acda0b74283","roundScoreInPoints":4974,"distanceInMeters":3311.8196824804,"lat":43.93470019972383,"lng":12.458069826745259},{"playerName":"Laban Greb","playerId":"55e36161a0d7017f50d7169f","roundScoreInPoints":0,"distanceInMeters":9119029.866621893,"lat":42.57216949590072,"lng":140.95848628033},{"playerName":"jwall","playerId":"5502180aa3a64425d4e14f8b","roundScoreInPoints":4978,"distanceInMeters":2813.4827315711,"lat":43.91863900839552,"lng":12.444252766391566},{"playerName":"L49 - Tall Impala","playerId":"5d78bdd41d19ab6f7052d9c2","roundScoreInPoints":718,"distanceInMeters":1212345.9423687602,"lat":40.73022975115671,"lng":-1.6518427706353433},{"playerName":"Omota Grati","playerId":"5bf058ca43196569e086e8c0","roundScoreInPoints":2786,"distanceInMeters":365273.8511440106,"lat":44.93537498574008,"lng":8.106600914979722},{"playerName":"Nakiro","playerId":"5e87ef372ad6cf18f4aad259","roundScoreInPoints":3097,"distanceInMeters":299201.9052529646,"lat":46.07833944505915,"lng":14.725567544266207},{"playerName":"Moogli","playerId":"5eee6aa862df1243a0cf5eed","roundScoreInPoints":2952,"distanceInMeters":329224.0011004613,"lat":46.04989077417134,"lng":9.585601911916232},{"playerName":"Nit2544","playerId":"57ab8aef45b6463228b07380","roundScoreInPoints":3067,"distanceInMeters":305309.9090108324,"lat":46.38098120732619,"lng":14.167709338522204},{"playerName":"Teproc","playerId":"5f8444f6a6e6cd0001030a6c","roundScoreInPoints":3545,"distanceInMeters":214818.0449616059,"lat":45.82775424725434,"lng":12.172301371627299},{"playerName":"schludy","playerId":"55c52ef13271ebb6e0aa8275","roundScoreInPoints":4592,"distanceInMeters":53216.8225411883,"lat":43.85796888584092,"lng":11.815647731322429},{"playerName":"Aral","playerId":"5f8cab85933183000175486e","roundScoreInPoints":3223,"distanceInMeters":274253.8511054541,"lat":46.36951101687146,"lng":12.258188352272747},{"playerName":"Schmeeps","playerId":"5eab3f4097d6cf4bdccbb6be","roundScoreInPoints":4234,"distanceInMeters":103950.8914797937,"lat":43.14940071934028,"lng":13.22982809565542},{"playerName":"Das Phantom","playerId":"57bee5777508373e8878b02a","roundScoreInPoints":2840,"distanceInMeters":353301.4455521942,"lat":43.612078772567735,"lng":16.85669394133371},{"playerName":"Mojihal","playerId":"5a33a1b3fed410625081981e","roundScoreInPoints":3354,"distanceInMeters":249531.3914817223,"lat":45.85673980391899,"lng":14.046589874492183},{"playerName":"Iza123","playerId":"5b3c1b80f65f8d3f044badd0","roundScoreInPoints":1546,"distanceInMeters":733501.4762472567,"lat":45.86398716960672,"lng":3.57823405882582},{"playerName":"Tom Lennak","playerId":"5d6a8a016902e1e288e36e50","roundScoreInPoints":3617,"distanceInMeters":202265.0985977582,"lat":45.487854591646055,"lng":11.207800038798487},{"playerName":"Linus","playerId":"5ffb60b475d2770001545e8b","roundScoreInPoints":3661,"distanceInMeters":194658.6282752096,"lat":45.142514958230045,"lng":10.735082067472241},{"playerName":"Mitshl","playerId":"5d1f1ff88a19a971e8ff5bbe","roundScoreInPoints":2509,"distanceInMeters":430756.0341940576,"lat":40.861773600679065,"lng":15.717839000255397},{"playerName":"RadoX1988 (Youtube)","playerId":"587fe18d8b9ff497a480f6ae","roundScoreInPoints":3472,"distanceInMeters":227920.4525529722,"lat":44.63052744322357,"lng":9.797162562636066},{"playerName":"Freek Joosten","playerId":"5fbc072a24491b00010e9687","roundScoreInPoints":1921,"distanceInMeters":597777.714239488,"lat":46.50495037322849,"lng":19.16109977723814},{"playerName":"Closed247","playerId":"553904af3254173ba0c68d07","roundScoreInPoints":4647,"distanceInMeters":45691.430183793,"lat":43.497613192001275,"lng":12.50800506184643},{"playerName":"Toni Bauer","playerId":"5bed65c7b5b94b1f18f78bf5","roundScoreInPoints":4165,"distanceInMeters":114102.7603191026,"lat":43.714997190593635,"lng":11.079360325662865},{"playerName":"Ministry of Primary Resources","playerId":"5d4ead1595bbda54e4d9b5a2","roundScoreInPoints":1702,"distanceInMeters":673363.5798248687,"lat":48.24486310370895,"lng":6.3758768870972915},{"playerName":"SuzukiTruck","playerId":"5d4d5d831d34a0315c277ad7","roundScoreInPoints":2010,"distanceInMeters":569195.1710754653,"lat":44.332624983365406,"lng":5.367787006127496},{"playerName":"SkydivingFerret","playerId":"560ebcc849145e39e865e8a6","roundScoreInPoints":3206,"distanceInMeters":277678.8653523971,"lat":44.91003771800497,"lng":15.678294989745782},{"playerName":"jajoha","playerId":"5d3af7e024ec173888d44466","roundScoreInPoints":1237,"distanceInMeters":872611.1062470962,"lat":50.16952298698139,"lng":5.517217958317446},{"playerName":"NicoTM","playerId":"54d5ec25ab462aac88f37650","roundScoreInPoints":2449,"distanceInMeters":446000.7159898064,"lat":46.36453918709321,"lng":16.972625691764634},{"playerName":"slashP","playerId":"5e99af0a97d6cf5854da8470","roundScoreInPoints":1062,"distanceInMeters":967855.0237642736,"lat":41.100858224590155,"lng":23.663905230106778},{"playerName":"Peter Humann","playerId":"5752fa8900a27f6f482a26e8","roundScoreInPoints":277,"distanceInMeters":1808064.3699399997,"lat":53.044784273655836,"lng":-7.979720235224534},{"playerName":"PatriotsFTW","playerId":"55e6859c4f5a3ac2a08f59bd","roundScoreInPoints":4348,"distanceInMeters":87235.022777108,"lat":43.406350728339945,"lng":11.642168919091564},{"playerName":"Pa Geography (YOUTUBE)","playerId":"5a9491773bc43ca2605819ce","roundScoreInPoints":1663,"distanceInMeters":687746.5716434876,"lat":43.442996146888966,"lng":21.007293176311197},{"playerName":"Altingwouk","playerId":"563954fefeb8152b140f7d50","roundScoreInPoints":4913,"distanceInMeters":11005.660701475,"lat":43.892698706929295,"lng":12.340301410634996},{"playerName":"YYYYY","playerId":"5f9d56a28d146900013381ed","roundScoreInPoints":3534,"distanceInMeters":216739.2323547208,"lat":45.73155172877173,"lng":11.505759914260109},{"playerName":"Hilari Mu\u00F1oz","playerId":"5ef77f315f12bd824412d55c","roundScoreInPoints":1363,"distanceInMeters":812242.5486090793,"lat":43.49784513831931,"lng":2.381425494153482},{"playerName":"Alessandro Puglia","playerId":"5ee5693b9d0ad24fd05b3f24","roundScoreInPoints":4164,"distanceInMeters":114276.6737493767,"lat":42.88766371162748,"lng":12.30543430102534},{"playerName":"Calamityx7 (YouTube)","playerId":"5a4416461cbd1557001a0de9","roundScoreInPoints":4976,"distanceInMeters":3060.2364799723,"lat":43.93476156911297,"lng":12.467875426189398},{"playerName":"NSJ","playerId":"5eff39a44fc569935426f9eb","roundScoreInPoints":3477,"distanceInMeters":226938.6711135538,"lat":42.137452961116864,"lng":13.865066435142293},{"playerName":"Knud","playerId":"5e3fd81ae9473f7b28bc8c2f","roundScoreInPoints":1280,"distanceInMeters":851156.3056406578,"lat":49.643557232158905,"lng":19.89407525854315},{"playerName":"blockchain prenup","playerId":"590ab19cb979e3c788527f5f","roundScoreInPoints":3859,"distanceInMeters":161797.069626067,"lat":42.56558919108817,"lng":11.704959991753947},{"playerName":"JesseBear","playerId":"56111858acdaa1481c515db8","roundScoreInPoints":1919,"distanceInMeters":598300.0901691157,"lat":47.345480819773364,"lng":6.5520039785022055},{"playerName":"Wh Venom","playerId":"6007461273cc03000160e61d","roundScoreInPoints":4159,"distanceInMeters":114995.838702356,"lat":43.41973150490886,"lng":11.215681496173143},{"playerName":"Noemii Ven","playerId":"5c4739e93d925b4af4b71007","roundScoreInPoints":2345,"distanceInMeters":473045.4647574652,"lat":47.979433096806915,"lng":10.701058739081878},{"playerName":"MJorgen00","playerId":"5add22a0582de23664deb5f0","roundScoreInPoints":4072,"distanceInMeters":128189.7879309586,"lat":43.50014690999047,"lng":10.984375129760151},{"playerName":"Ben Keller","playerId":"586f07790eac72086c34a57b","roundScoreInPoints":2415,"distanceInMeters":454742.0226320134,"lat":43.84692922743263,"lng":6.8020607582595005},{"playerName":"Mister Blue (Youtube Channel)","playerId":"5cda05c88701a8aa94a42a06","roundScoreInPoints":877,"distanceInMeters":1087164.4150588522,"lat":42.32672290069818,"lng":-0.7570529197845177},{"playerName":"HugoAlvara2","playerId":"5e8609cb3d4b6a3cf8dcfc9c","roundScoreInPoints":992,"distanceInMeters":1010366.7211375536,"lat":50.051393559173505,"lng":2.635825135504888},{"playerName":"Markus","playerId":"56ea88b8148a781b143aec68","roundScoreInPoints":4150,"distanceInMeters":116355.5388374487,"lat":44.36371028512925,"lng":11.163599310433549},{"playerName":"hee hee I am micheal jackson","playerId":"5f0bb6300bd1e046649c4436","roundScoreInPoints":1321,"distanceInMeters":831374.0497513337,"lat":49.932750056446004,"lng":5.978674019008641},{"playerName":"Xandi4","playerId":"5f27501b58a30e00019fc7f4","roundScoreInPoints":1726,"distanceInMeters":664388.9032009945,"lat":47.70916508114179,"lng":5.8557788488366125},{"playerName":"Flavdsv","playerId":"5bc387b1fdd59823e4fac52a","roundScoreInPoints":1801,"distanceInMeters":637785.0661632695,"lat":48.30781953922299,"lng":17.78986790520062},{"playerName":"SovietSpy","playerId":"5d47e78824ec173888d68999","roundScoreInPoints":781,"distanceInMeters":1160283.1442069046,"lat":43.08583260806951,"lng":-1.8820422919635704},{"playerName":"Mixhond","playerId":"6005591ea5ecaa0001488da5","roundScoreInPoints":3208,"distanceInMeters":277261.533781956,"lat":46.07320707083132,"lng":10.727308608401204},{"playerName":"MrYamazaky","playerId":"54a5e52fa737a7ab64a2d557","roundScoreInPoints":200,"distanceInMeters":2010024.3045299635,"lat":60.5592367924191,"lng":24.228445723139885},{"playerName":"BOKSA","playerId":"5b6ae3177135fa0e48b4df1f","roundScoreInPoints":885,"distanceInMeters":1082043.329769757,"lat":49.800769336767175,"lng":1.1201860782993123},{"playerName":"whereisalex","playerId":"5d4971123b4b6a4968627ca4","roundScoreInPoints":1442,"distanceInMeters":776855.1325839651,"lat":45.9336539698497,"lng":3.0259486825896387},{"playerName":"Jonny Tickle","playerId":"5a8bf81042305f3fd4f52ecf","roundScoreInPoints":883,"distanceInMeters":1083456.2244358547,"lat":51.978470667368676,"lng":4.290238863054663},{"playerName":"utilisateurinconnu","playerId":"5fb06413a07ff60001fe92fc","roundScoreInPoints":1608,"distanceInMeters":708576.2649466768,"lat":44.25512802376192,"lng":3.6140442686854524},{"playerName":"Giovanni1798p","playerId":"585ab14c0eac725eb84e625e","roundScoreInPoints":4601,"distanceInMeters":52018.2114586588,"lat":43.52010940790444,"lng":12.113978240726562},{"playerName":"Simerodge (Twitch)","playerId":"56b63c594da173bbf412746f","roundScoreInPoints":3335,"distanceInMeters":253045.4834575683,"lat":41.91335699332364,"lng":13.972407625698121},{"playerName":"Daniel Latosinski","playerId":"597e1fb3a237ab6bf0b368a2","roundScoreInPoints":1443,"distanceInMeters":776573.7161198149,"lat":44.96307887359157,"lng":22.15075370805811},{"playerName":"Equinox772","playerId":"5cc1545b8701a898fc423332","roundScoreInPoints":4074,"distanceInMeters":128023.000477669,"lat":44.31160540193733,"lng":10.974308563805696},{"playerName":"Dfaridchavana","playerId":"5acd6068582de23c50e2bd71","roundScoreInPoints":3184,"distanceInMeters":281939.1900579437,"lat":46.161845271926964,"lng":14.119798945465195},{"playerName":"The59Soundbite","playerId":"54a7420ba737a7ab64a2d7cc","roundScoreInPoints":1697,"distanceInMeters":675191.3237881922,"lat":46.995849038055844,"lng":5.016692590373699},{"playerName":"Myck","playerId":"554641fe325417fc783d3ef3","roundScoreInPoints":1443,"distanceInMeters":776599.9412457101,"lat":49.06031183048617,"lng":19.33576381702352},{"playerName":"(\u0E07 \u0360\u00B0 \u035F\u0644\u035C \u0361\u00B0)\u0E07","playerId":"5ef922a47410d364c0f4573f","roundScoreInPoints":324,"distanceInMeters":1710236.9589730743,"lat":53.042585002620804,"lng":-6.333471341123473},{"playerName":"GUGGE","playerId":"5e5af0ef26bbda0a34329e06","roundScoreInPoints":3231,"distanceInMeters":272703.6403551753,"lat":46.35240138339787,"lng":12.196153520514024},{"playerName":"Loic13130","playerId":"5aef2d8f2a3e0d46243dd1bc","roundScoreInPoints":1227,"distanceInMeters":877809.4898667631,"lat":47.3347564364115,"lng":2.294518488022237},{"playerName":"Suzan Dragon","playerId":"5ffe47e62c6fdf000156ed4d","roundScoreInPoints":1997,"distanceInMeters":573345.863418735,"lat":45.017164200534616,"lng":5.4180410452522},{"playerName":"Among Us Drip","playerId":"59563435dbd032c678aecbae","roundScoreInPoints":277,"distanceInMeters":1807246.953517112,"lat":60.03901846149982,"lng":15.765720143079971},{"playerName":"Alex D","playerId":"5dd9bd4c6a1dd6b1d4e391fe","roundScoreInPoints":1938,"distanceInMeters":592175.5188835926,"lat":47.18055419809784,"lng":18.479630330433125},{"playerName":"Kuba Gw\u00F3\u017Ad\u017A","playerId":"5eeab5d4c40eff35508b636d","roundScoreInPoints":1771,"distanceInMeters":648366.2549258289,"lat":49.04847161555863,"lng":16.47865575647208},{"playerName":"Kevin Croner","playerId":"5cd01b626cca66315479c590","roundScoreInPoints":1889,"distanceInMeters":608166.1548106623,"lat":42.83750212221923,"lng":19.857566764747364},{"playerName":"vulkanisch","playerId":"5f0f948d0624d4374c1f0594","roundScoreInPoints":677,"distanceInMeters":1249368.4263121288,"lat":42.412345871764586,"lng":-2.813054097986254},{"playerName":"Ionica Meseri","playerId":"5aa5782542305f89a0f9f17c","roundScoreInPoints":1357,"distanceInMeters":814605.3312034896,"lat":49.774208209056546,"lng":6.046737863440068},{"playerName":"llub888","playerId":"5ef0386f0e480c71c86abcb6","roundScoreInPoints":2652,"distanceInMeters":396282.9116978132,"lat":46.56026320377499,"lng":15.857627964673785},{"playerName":"Shumi Oboloso","playerId":"5ef46c28f5a9c52d9061095f","roundScoreInPoints":326,"distanceInMeters":1706489.8531553864,"lat":57.180350919335325,"lng":24.76536960865957},{"playerName":"Ben F.","playerId":"5e7ea0d5cd30753eb4bea86b","roundScoreInPoints":1326,"distanceInMeters":829284.2516399625,"lat":49.915072232686484,"lng":5.991112087829018},{"playerName":"snowfall!","playerId":"5e3711ede9473f5ec8dc5767","roundScoreInPoints":2855,"distanceInMeters":350022.8357706968,"lat":46.43634530134218,"lng":15.136704675594034},{"playerName":"Lamajaestadesnuda","playerId":"5e8898183d4b6a5f98da4d07","roundScoreInPoints":419,"distanceInMeters":1548301.180589016,"lat":52.75725914327819,"lng":-3.803236318012313},{"playerName":"C\u00FCplidude","playerId":"5e85fd282ad6cf5728cb7805","roundScoreInPoints":3084,"distanceInMeters":301826.930993793,"lat":45.84622192855907,"lng":15.158207858438324},{"playerName":"Emil Hofman","playerId":"55407a150b70ea1c90fb6eb2","roundScoreInPoints":3302,"distanceInMeters":259162.6148823682,"lat":46.237266238870475,"lng":12.365163870450958},{"playerName":"Mvem","playerId":"57b9377d177ccfcb041372f4","roundScoreInPoints":2010,"distanceInMeters":569312.4801097945,"lat":44.561481896298076,"lng":5.386262674510296},{"playerName":"Bwliu","playerId":"5e77c3a6cd30757430fe1fb0","roundScoreInPoints":1702,"distanceInMeters":673249.7080387137,"lat":48.054045968774595,"lng":6.118927491004071},{"playerName":"Zatsura Hoover","playerId":"5ffc70238527e00001055111","roundScoreInPoints":1062,"distanceInMeters":968202.708556606,"lat":51.92517511405299,"lng":17.5649063747411},{"playerName":"Seppo","playerId":"59caa5c7d8fe1d5b3063fbf1","roundScoreInPoints":1442,"distanceInMeters":776747.4949920718,"lat":45.506947335907576,"lng":22.05065980219205},{"playerName":"Totem","playerId":"567acc679638a144acb018fc","roundScoreInPoints":532,"distanceInMeters":1399278.3028695453,"lat":41.76966235647609,"lng":-4.468100580161713},{"playerName":"Freddo","playerId":"5fece05555afe7000183e3f1","roundScoreInPoints":2102,"distanceInMeters":541487.3838319038,"lat":45.982785733665146,"lng":6.2487017647873255},{"playerName":"MaxFI","playerId":"56d469dce5cc36a0088ade7d","roundScoreInPoints":1380,"distanceInMeters":804121.0717562838,"lat":49.63462654158779,"lng":6.014875455511994},{"playerName":"Tomvdb98","playerId":"568357b8b19e82f958d49620","roundScoreInPoints":1839,"distanceInMeters":625054.0739472725,"lat":47.950477188727696,"lng":6.854441608131201},{"playerName":"Gweilowizard","playerId":"5988a813fdab8f163023ea10","roundScoreInPoints":2123,"distanceInMeters":535269.6763876837,"lat":47.361568393973705,"lng":7.67660912678322},{"playerName":"Gamerrg16","playerId":"5e84b3a03d4b6a64e0286c13","roundScoreInPoints":719,"distanceInMeters":1211442.8347307066,"lat":41.923230852657866,"lng":-2.1725250136397563},{"playerName":"Svedka Katrip","playerId":"5d9bbb62df1dd6c514ca9f61","roundScoreInPoints":965,"distanceInMeters":1027576.8609786656,"lat":45.53762812567555,"lng":25.293427439313415},{"playerName":"Julian Neeleman","playerId":"5e48124112777c7d34a180bc","roundScoreInPoints":1768,"distanceInMeters":649480.9469828667,"lat":49.20912855219992,"lng":16.048079214473944},{"playerName":"Benjamin Hacker","playerId":"5ffef24a720e43000190c081","roundScoreInPoints":1033,"distanceInMeters":985516.185040902,"lat":51.54952491682453,"lng":19.17589615418294},{"playerName":"Essam Faltas","playerId":"5ff5eff123c6b300011323bf","roundScoreInPoints":1179,"distanceInMeters":902624.2298302876,"lat":45.666397079249535,"lng":1.2996416778431774},{"playerName":"Actuary Superb","playerId":"5e857f082ad6cf0108e5b64e","roundScoreInPoints":2991,"distanceInMeters":321097.4165874803,"lat":46.322965540144715,"lng":14.72011779515566},{"playerName":"Kobeatss","playerId":"5f4d295526ac9800018a1229","roundScoreInPoints":1364,"distanceInMeters":811482.9030085546,"lat":44.86532416663414,"lng":2.3454190820177034},{"playerName":"Carlos Omse","playerId":"5f191412955ae60001d90d81","roundScoreInPoints":1320,"distanceInMeters":832054.1707865156,"lat":46.536051584444934,"lng":22.432644464230215},{"playerName":"Mahbows","playerId":"5674230b9638a165744d848a","roundScoreInPoints":1353,"distanceInMeters":816724.2301656385,"lat":49.786566937563286,"lng":6.0235245497751855},{"playerName":"13374269666","playerId":"5b675cd171daa40ad0bdeb71","roundScoreInPoints":1567,"distanceInMeters":724693.1701387599,"lat":48.41392570294514,"lng":5.668379000247548},{"playerName":"_rossi","playerId":"5ff231ef2fbd2f0001e51a72","roundScoreInPoints":3209,"distanceInMeters":277145.2596542771,"lat":45.81273630398457,"lng":10.207881535767903},{"playerName":"jakie","playerId":"5644402155660c3334065a40","roundScoreInPoints":2546,"distanceInMeters":421629.7480251552,"lat":41.162656252893086,"lng":16.027201717143747},{"playerName":"orava","playerId":"60018bb6272d450001a85d1d","roundScoreInPoints":2465,"distanceInMeters":441983.1039507438,"lat":47.66302064304309,"lng":14.346267382002758},{"playerName":"Kuba R\u00F6zpruwacz","playerId":"57586922c3eb4f2fd408b99b","roundScoreInPoints":1671,"distanceInMeters":684641.4726796648,"lat":48.83567333978856,"lng":17.834335438439272},{"playerName":"Koviho (Twitch)","playerId":"56b3532e4da173bbf41266cb","roundScoreInPoints":738,"distanceInMeters":1195166.4734017868,"lat":43.16342165833035,"lng":-2.334839072784196},{"playerName":"Ben Dez","playerId":"5d468dd724ec173888d651f2","roundScoreInPoints":1586,"distanceInMeters":717370.7117063754,"lat":49.897078394391066,"lng":15.993327287181293},{"playerName":"TeddyFerrand","playerId":"5f0f9d7d35d07c3f986e1a9e","roundScoreInPoints":300,"distanceInMeters":1757752.487643215,"lat":39.90064218018698,"lng":-8.134103554185236},{"playerName":"FFF","playerId":"5d7f8f6eea473fb5ecd26160","roundScoreInPoints":1692,"distanceInMeters":676980.7401275084,"lat":47.81665221043061,"lng":19.186317853285345},{"playerName":"Lenn the Man","playerId":"5b4899f5b56fe41a1831bba4","roundScoreInPoints":2151,"distanceInMeters":526844.8983607817,"lat":44.72880702087108,"lng":5.951991635682705},{"playerName":"Philipp Zorn","playerId":"5a4a3a173e8e0370a8f68b95","roundScoreInPoints":3082,"distanceInMeters":302393.9225502056,"lat":46.405239464397106,"lng":10.948971378019161},{"playerName":"Marcative","playerId":"600885dd8b224300016f9e0c","roundScoreInPoints":1941,"distanceInMeters":591102.4062943049,"lat":48.4672314911992,"lng":8.522970161495733},{"playerName":"GeoGuruYT","playerId":"5f4c25038c3ef000010ace88","roundScoreInPoints":950,"distanceInMeters":1037256.374378569,"lat":49.16070149977931,"lng":1.2436095636408027},{"playerName":"Mara44","playerId":"5cdf0526bc79e1967470aad3","roundScoreInPoints":325,"distanceInMeters":1707184.65684405,"lat":40.92927205510409,"lng":-7.983646471230408},{"playerName":"Tymur Schoolota","playerId":"5d84e5dcee473f9c08be25f8","roundScoreInPoints":1988,"distanceInMeters":576132.5176933556,"lat":45.34796808894295,"lng":5.479710744395106},{"playerName":"Noahleise","playerId":"5baa42c8a8e5d55294d5af14","roundScoreInPoints":1961,"distanceInMeters":584790.5307354948,"lat":42.7371279161884,"lng":19.5262234091733},{"playerName":"\uD835\uDE3F\uD835\uDE40\uD835\uDE3C\uD835\uDE3F\uD835\uDE48\uD835\uDE3C\uD835\uDE49","playerId":"5f3a0573ef41f70001142a79","roundScoreInPoints":0,"distanceInMeters":8138915.003288688,"lat":45.24303240322475,"lng":-101.15518240962629},{"playerName":"schm1ngo","playerId":"5b58d90371daa40fccbde7ed","roundScoreInPoints":296,"distanceInMeters":1766705.5719842513,"lat":53.21685664342327,"lng":-7.138612345518451},{"playerName":"Madeleineiro","playerId":"5ee8a7d403f80c500c7d271e","roundScoreInPoints":1114,"distanceInMeters":938225.9113736443,"lat":44.815480342302564,"lng":0.7320528985069341},{"playerName":"\u822A","playerId":"5fdad91853f96b0001c7e0e8","roundScoreInPoints":590,"distanceInMeters":1335240.6795362688,"lat":55.76326765991083,"lng":9.488057167593226},{"playerName":"Iamaf15h","playerId":"570c01878be465698458a366","roundScoreInPoints":1677,"distanceInMeters":682329.5837059624,"lat":49.94782721847513,"lng":14.065671437537146},{"playerName":"Miruna Carp","playerId":"5e77513bb3ec1744b45eafe8","roundScoreInPoints":296,"distanceInMeters":1766681.7857096472,"lat":59.795831255029015,"lng":12.345946740764324},{"playerName":"cai94","playerId":"5c0d2dc24319658eb00059fb","roundScoreInPoints":752,"distanceInMeters":1183793.8045701233,"lat":52.932899891720005,"lng":21.03211863573489},{"playerName":"William Sawatzky","playerId":"5b8d77231ee0107188679c27","roundScoreInPoints":636,"distanceInMeters":1288712.4471875178,"lat":42.29080738811805,"lng":-3.266358041784434},{"playerName":"Meirelesleo01","playerId":"600484365a43d90001a9b918","roundScoreInPoints":1,"distanceInMeters":5117149.975347256,"lat":58.876671725732066,"lng":86.78136325256284},{"playerName":"Advisory","playerId":"5d537e8924ec173888d844fd","roundScoreInPoints":620,"distanceInMeters":1304322.0259097887,"lat":43.378980692629376,"lng":-3.7431674895109412},{"playerName":"Elling Bak\u00E5s","playerId":"5ed41d4493122b841c19e7ab","roundScoreInPoints":1412,"distanceInMeters":789994.1068052704,"lat":48.85350105035985,"lng":19.882264608962696},{"playerName":"Kopdog","playerId":"5e7e2962cd30750a50cc3636","roundScoreInPoints":1842,"distanceInMeters":623841.4550869904,"lat":48.05091999272926,"lng":7.02615085067094},{"playerName":"Karciarz","playerId":"5cca38e99309606444f2e413","roundScoreInPoints":316,"distanceInMeters":1724654.3828246712,"lat":52.98131978594565,"lng":-6.633910503516991},{"playerName":"Chilovechno Moloko","playerId":"600839c66465630001b08ba2","roundScoreInPoints":1695,"distanceInMeters":675890.3608000466,"lat":48.53508891404373,"lng":18.180890326373262},{"playerName":"Dariamangia","playerId":"5fd4a64b2eec7c00015bb172","roundScoreInPoints":1829,"distanceInMeters":628366.060938598,"lat":48.20395562357079,"lng":7.179530730424957},{"playerName":"Dominik Reuab","playerId":"5ffeacec720e430001908f29","roundScoreInPoints":1131,"distanceInMeters":928667.8256547488,"lat":52.11875497093744,"lng":10.183649180443366},{"playerName":"Ryan Kurt","playerId":"5d2b1d613d4b6a6554c11f02","roundScoreInPoints":2510,"distanceInMeters":430460.2555099218,"lat":47.76233425158997,"lng":12.992972015076129},{"playerName":"Jan","playerId":"600212c78eb37000018aa641","roundScoreInPoints":1133,"distanceInMeters":927305.3440454998,"lat":39.26766886004078,"lng":21.753547831577524},{"playerName":"Joey Wong","playerId":"6004a15d8eb37000018c6cf5","roundScoreInPoints":856,"distanceInMeters":1102695.3511026609,"lat":52.60538800779792,"lng":19.667081096853337},{"playerName":"Hiyam100","playerId":"57704407813a4f985c966982","roundScoreInPoints":2816,"distanceInMeters":358636.5695348082,"lat":45.35120957383654,"lng":16.529806946843596},{"playerName":"Mazen Darwish","playerId":"5b43a904cead176c382bdccf","roundScoreInPoints":1430,"distanceInMeters":781886.466110324,"lat":46.26045809381563,"lng":3.083098840373699},{"playerName":"Alabayz","playerId":"5aa2507442305f89a0f960aa","roundScoreInPoints":1793,"distanceInMeters":640728.4045924663,"lat":48.924644772657615,"lng":16.593823187240602},{"playerName":"Danwinks25","playerId":"6005aeaa73cc0300015fb336","roundScoreInPoints":839,"distanceInMeters":1115152.7935899002,"lat":53.36106443199324,"lng":17.572552340664334},{"playerName":"DT","playerId":"58e8bd5e27c28b8514338af7","roundScoreInPoints":1220,"distanceInMeters":881160.1976514678,"lat":45.24303240322474,"lng":1.5010675903736992},{"playerName":"Aptx14","playerId":"548a20e5a737a7720c39adc7","roundScoreInPoints":1193,"distanceInMeters":895206.1942435197,"lat":44.356441732933774,"lng":1.2677540614851601},{"playerName":"Michalmazurekpl","playerId":"5a8217355eefed5f141fb4bf","roundScoreInPoints":454,"distanceInMeters":1498211.1378076086,"lat":57.37366006547313,"lng":13.215262675947036},{"playerName":"Sohail","playerId":"598ddbec17631e7414584a34","roundScoreInPoints":277,"distanceInMeters":1806711.1149619569,"lat":57.289121664357886,"lng":27.204413307522287},{"playerName":"Franzhaagen","playerId":"5f4991a60088410001ca3689","roundScoreInPoints":1250,"distanceInMeters":866155.1250518741,"lat":42.91360731557623,"lng":1.8332364576718208},{"playerName":"R Lucik13","playerId":"5f0d52998551644f80322c8f","roundScoreInPoints":420,"distanceInMeters":1547726.3677532028,"lat":54.46369877044066,"lng":-1.5250040896510364},{"playerName":"IRONTNT","playerId":"5fff0693d6d8a80001644dd7","roundScoreInPoints":315,"distanceInMeters":1727454.0619448945,"lat":57.13818602458995,"lng":25.458533377494565},{"playerName":"Dr. Hausig","playerId":"5ef7c87935b56c5538c78103","roundScoreInPoints":242,"distanceInMeters":1890730.272670064,"lat":53.562801877917884,"lng":-8.941668159695393},{"playerName":"Raul Oprescu","playerId":"600198bb5ee376000188ccd3","roundScoreInPoints":884,"distanceInMeters":1082709.4551729993,"lat":46.026726831165284,"lng":25.927173149287935},{"playerName":"Tiggyvamp","playerId":"56331f555b41f8646cf85123","roundScoreInPoints":323,"distanceInMeters":1711801.4888527414,"lat":59.17909793826075,"lng":15.658881802300519},{"playerName":"Kadir Uslu","playerId":"5e9ac8256ea5101658218d7b","roundScoreInPoints":406,"distanceInMeters":1568066.9081834308,"lat":38.415126427445934,"lng":29.77849836930842},{"playerName":"ConnoR \\\\","playerId":"5e244f9b22bbda424481f943","roundScoreInPoints":762,"distanceInMeters":1174913.570665902,"lat":52.244300117164805,"lng":22.24029588145403}],[{"playerName":"granis","playerId":"5a9406e398cc2c6744a92477","roundScoreInPoints":4125,"distanceInMeters":120239.5174448859,"lat":46.19069993096329,"lng":3.8639089754917633},{"playerName":"Radu C","playerId":"57d301d409f2efcce834fc94","roundScoreInPoints":3765,"distanceInMeters":177234.5508329247,"lat":47.71291259609724,"lng":4.363623469193598},{"playerName":"Mapper","playerId":"556cd0402bfa312b5485ab61","roundScoreInPoints":4157,"distanceInMeters":115289.871937736,"lat":47.064135337648,"lng":1.0688967271375072},{"playerName":"Sagittarius998","playerId":"561e6e8afeb81545584f5c42","roundScoreInPoints":4254,"distanceInMeters":101017.9212696729,"lat":45.954638749814656,"lng":1.8380424295721065},{"playerName":"Magyaron - GeoGuessr (YouTube)","playerId":"5c4b184898004e87dc4baa50","roundScoreInPoints":4099,"distanceInMeters":124142.5206184993,"lat":46.59023009582985,"lng":4.121377777242388},{"playerName":"Simi (Twitch/Youtube)","playerId":"59fc5f5c39d8552a6c5e81a2","roundScoreInPoints":3017,"distanceInMeters":315677.9272467926,"lat":48.5745181963086,"lng":5.721386692532224},{"playerName":"Kurt - Geoguessr (youtube)","playerId":"5eee48419d57a84ae09c6e61","roundScoreInPoints":3891,"distanceInMeters":156721.1692701112,"lat":46.31346803465756,"lng":4.4627060668879315},{"playerName":"Raidman Mucha","playerId":"5c5c84a5da1de264500b959e","roundScoreInPoints":4029,"distanceInMeters":134841.5639539746,"lat":47.49116438027851,"lng":3.9032660600985825},{"playerName":"cookie","playerId":"5ede7e46b41b6b7e7c314cf5","roundScoreInPoints":3918,"distanceInMeters":152423.9751653603,"lat":45.40441563763669,"lng":2.041581982887064},{"playerName":"Elnath","playerId":"5be57a801f3cf826908cd5ba","roundScoreInPoints":2806,"distanceInMeters":360994.3736519475,"lat":48.56608425418593,"lng":6.490781993935757},{"playerName":"Wolftrekker (YouTube)","playerId":"59a362320ee41f7e90f3ce92","roundScoreInPoints":3442,"distanceInMeters":233244.0374112314,"lat":44.63995117316171,"lng":2.609906904126862},{"playerName":"stealthisnick","playerId":"5e9c6d8ed502e13eecc68615","roundScoreInPoints":3787,"distanceInMeters":173548.0243039116,"lat":45.73753646742302,"lng":4.242563211969674},{"playerName":"Mason Hockensmith","playerId":"5588c79e07f3546e0c49c686","roundScoreInPoints":4140,"distanceInMeters":117861.229762649,"lat":45.75588359339803,"lng":3.0908473413142135},{"playerName":"JakartaYogurt","playerId":"5c4cb5303d925b4af4b898ec","roundScoreInPoints":4125,"distanceInMeters":120178.2641902895,"lat":45.73759344544771,"lng":3.105653764327152},{"playerName":"Pierre","playerId":"5c6840eafa7cd6698082add1","roundScoreInPoints":3717,"distanceInMeters":185179.2451999237,"lat":47.536459826861794,"lng":4.655795316478075},{"playerName":"FRANCESCO TOFFANIN","playerId":"5ec9718bf45d4914ac38a2f9","roundScoreInPoints":3578,"distanceInMeters":209040.4416386532,"lat":45.74184428129067,"lng":4.815331921138024},{"playerName":"Alex YP","playerId":"5edd3e697ee0fa5078a354cb","roundScoreInPoints":4079,"distanceInMeters":127159.4628559844,"lat":47.160741704563364,"lng":4.0641656543727045},{"playerName":"Warren G. Harding","playerId":"5becdeaa3bac7221002eeaf0","roundScoreInPoints":2765,"distanceInMeters":370180.4293036692,"lat":50.03374325719417,"lng":1.8175418577786395},{"playerName":"Orpheus","playerId":"5d4f39f41d34a0315c27c104","roundScoreInPoints":4622,"distanceInMeters":49172.9743856274,"lat":46.29678942237107,"lng":2.438412329686299},{"playerName":"deep-thot","playerId":"56f41715148a781b143b1443","roundScoreInPoints":4287,"distanceInMeters":96135.4691224377,"lat":46.639714629328076,"lng":3.761024340299195},{"playerName":"HankScorpio93","playerId":"5c13cd56dfdaaa12c09de021","roundScoreInPoints":3287,"distanceInMeters":262154.846362527,"lat":44.847819657619745,"lng":0.48408640001252934},{"playerName":"Morqka1913","playerId":"5b2cebc2cead176c3829d59b","roundScoreInPoints":3688,"distanceInMeters":190171.575791464,"lat":45.16743491113983,"lng":1.529304053194207},{"playerName":"xMeRiko","playerId":"5aad9aa618399e275830579d","roundScoreInPoints":3869,"distanceInMeters":160221.7620563156,"lat":47.36542056648848,"lng":0.6058463198211905},{"playerName":"Geography Challenges (YouTube)","playerId":"560d1fdae6cc626bc8c51c4f","roundScoreInPoints":2889,"distanceInMeters":342670.600205692,"lat":43.94414270367554,"lng":0.6525875949857891},{"playerName":"nickydimebags","playerId":"5d6d75d06902e1e288e39b7d","roundScoreInPoints":3408,"distanceInMeters":239387.1302613127,"lat":48.721387379617,"lng":3.7478185168839984},{"playerName":"Alesn Caputo","playerId":"5faf0999baecc90001bee349","roundScoreInPoints":4125,"distanceInMeters":120130.9865445022,"lat":46.59523941744391,"lng":4.069386730916009},{"playerName":"Antoine Mou\u00EBs","playerId":"5e9979ce318e4665d866c449","roundScoreInPoints":2843,"distanceInMeters":352673.8455438926,"lat":44.08164247108435,"lng":0.03549124284259353},{"playerName":"Costa Rica","playerId":"57743f3718aa6acda0b74283","roundScoreInPoints":2943,"distanceInMeters":331144.7417431704,"lat":44.571663770190206,"lng":-0.41827405127349504},{"playerName":"Laban Greb","playerId":"55e36161a0d7017f50d7169f","roundScoreInPoints":3198,"distanceInMeters":279257.9074244466,"lat":44.892502214544294,"lng":4.9555077485020504},{"playerName":"jwall","playerId":"5502180aa3a64425d4e14f8b","roundScoreInPoints":2828,"distanceInMeters":356041.7625770322,"lat":47.646067213178135,"lng":-2.0099840559610493},{"playerName":"L49 - Tall Impala","playerId":"5d78bdd41d19ab6f7052d9c2","roundScoreInPoints":3946,"distanceInMeters":147855.8628952323,"lat":47.98471084512957,"lng":3.184723579567059},{"playerName":"Omota Grati","playerId":"5bf058ca43196569e086e8c0","roundScoreInPoints":4000,"distanceInMeters":139370.9745134803,"lat":47.682998360215564,"lng":3.717956744686246},{"playerName":"Nakiro","playerId":"5e87ef372ad6cf18f4aad259","roundScoreInPoints":4045,"distanceInMeters":132425.3574836987,"lat":45.610995920477365,"lng":1.9457885106595985},{"playerName":"Moogli","playerId":"5eee6aa862df1243a0cf5eed","roundScoreInPoints":3761,"distanceInMeters":177867.9475928252,"lat":45.19345469374514,"lng":1.9012618872255693},{"playerName":"Nit2544","playerId":"57ab8aef45b6463228b07380","roundScoreInPoints":3653,"distanceInMeters":196077.9761642153,"lat":47.64699852629277,"lng":4.730867469028821},{"playerName":"Teproc","playerId":"5f8444f6a6e6cd0001030a6c","roundScoreInPoints":2997,"distanceInMeters":319833.3550510719,"lat":44.05395775300803,"lng":3.9876505830856646},{"playerName":"schludy","playerId":"55c52ef13271ebb6e0aa8275","roundScoreInPoints":2795,"distanceInMeters":363306.3391854128,"lat":43.61278643722679,"lng":3.868702038209766},{"playerName":"Aral","playerId":"5f8cab85933183000175486e","roundScoreInPoints":3391,"distanceInMeters":242550.1268925118,"lat":44.892504624609934,"lng":0.8361037995952003},{"playerName":"Schmeeps","playerId":"5eab3f4097d6cf4bdccbb6be","roundScoreInPoints":2795,"distanceInMeters":363412.0150360499,"lat":43.909002046676285,"lng":4.841128368681439},{"playerName":"Das Phantom","playerId":"57bee5777508373e8878b02a","roundScoreInPoints":3316,"distanceInMeters":256485.5922228306,"lat":44.678931717665385,"lng":1.0148619950652948},{"playerName":"Mojihal","playerId":"5a33a1b3fed410625081981e","roundScoreInPoints":2681,"distanceInMeters":389478.7824191862,"lat":49.258953002986466,"lng":6.1417927557287255},{"playerName":"Iza123","playerId":"5b3c1b80f65f8d3f044badd0","roundScoreInPoints":4476,"distanceInMeters":69136.90924298,"lat":46.218568015181106,"lng":3.008381409374725},{"playerName":"Tom Lennak","playerId":"5d6a8a016902e1e288e36e50","roundScoreInPoints":3748,"distanceInMeters":180082.0941067615,"lat":46.33722811421115,"lng":4.790362558188397},{"playerName":"Linus","playerId":"5ffb60b475d2770001545e8b","roundScoreInPoints":2958,"distanceInMeters":327899.8331346016,"lat":44.14412306892623,"lng":4.51277980408189},{"playerName":"Mitshl","playerId":"5d1f1ff88a19a971e8ff5bbe","roundScoreInPoints":3496,"distanceInMeters":223631.2485458719,"lat":48.00948848950185,"lng":0.20930490773035437},{"playerName":"RadoX1988 (Youtube)","playerId":"587fe18d8b9ff497a480f6ae","roundScoreInPoints":3140,"distanceInMeters":290725.575604352,"lat":44.20738910426487,"lng":1.5621505760955534},{"playerName":"Freek Joosten","playerId":"5fbc072a24491b00010e9687","roundScoreInPoints":3171,"distanceInMeters":284495.5576360852,"lat":48.960961691719696,"lng":4.392402127221877},{"playerName":"Closed247","playerId":"553904af3254173ba0c68d07","roundScoreInPoints":2997,"distanceInMeters":319791.1123120503,"lat":44.05355242187428,"lng":3.9846510601817275},{"playerName":"Toni Bauer","playerId":"5bed65c7b5b94b1f18f78bf5","roundScoreInPoints":2511,"distanceInMeters":430399.2275911766,"lat":43.36694543898498,"lng":5.2067719442555305},{"playerName":"Ministry of Primary Resources","playerId":"5d4ead1595bbda54e4d9b5a2","roundScoreInPoints":4669,"distanceInMeters":42856.6268676474,"lat":47.096249737231325,"lng":2.710537507904154},{"playerName":"SuzukiTruck","playerId":"5d4d5d831d34a0315c277ad7","roundScoreInPoints":3550,"distanceInMeters":213999.7060184302,"lat":45.06494721618232,"lng":3.8797317440099777},{"playerName":"SkydivingFerret","playerId":"560ebcc849145e39e865e8a6","roundScoreInPoints":2874,"distanceInMeters":345988.0810956618,"lat":43.630491093654626,"lng":2.2421312384645153},{"playerName":"jajoha","playerId":"5d3af7e024ec173888d44466","roundScoreInPoints":4299,"distanceInMeters":94366.7473398144,"lat":46.24734531596636,"lng":1.5010675903736992},{"playerName":"NicoTM","playerId":"54d5ec25ab462aac88f37650","roundScoreInPoints":3390,"distanceInMeters":242696.3077030626,"lat":44.90179151859818,"lng":4.205531807849487},{"playerName":"slashP","playerId":"5e99af0a97d6cf5854da8470","roundScoreInPoints":3207,"distanceInMeters":277450.8652208821,"lat":44.27253299109646,"lng":3.0712128814388118},{"playerName":"Peter Humann","playerId":"5752fa8900a27f6f482a26e8","roundScoreInPoints":4380,"distanceInMeters":82713.0437732398,"lat":46.13849221720471,"lng":1.8663477795799288},{"playerName":"PatriotsFTW","playerId":"55e6859c4f5a3ac2a08f59bd","roundScoreInPoints":2770,"distanceInMeters":368922.5509059878,"lat":43.47242674792669,"lng":1.6645688970707617},{"playerName":"Pa Geography (YOUTUBE)","playerId":"5a9491773bc43ca2605819ce","roundScoreInPoints":3029,"distanceInMeters":313164.0568877832,"lat":43.9318052833177,"lng":2.1422523871960664},{"playerName":"Altingwouk","playerId":"563954fefeb8152b140f7d50","roundScoreInPoints":2984,"distanceInMeters":322578.2110680928,"lat":44.29009091043647,"lng":4.734613216986787},{"playerName":"YYYYY","playerId":"5f9d56a28d146900013381ed","roundScoreInPoints":3542,"distanceInMeters":215314.2302238332,"lat":45.04910401651427,"lng":3.8738272976288757},{"playerName":"Hilari Mu\u00F1oz","playerId":"5ef77f315f12bd824412d55c","roundScoreInPoints":3161,"distanceInMeters":286438.4542132694,"lat":45.523823545083154,"lng":5.788560067500845},{"playerName":"Alessandro Puglia","playerId":"5ee5693b9d0ad24fd05b3f24","roundScoreInPoints":2850,"distanceInMeters":351285.3128330722,"lat":43.778341846417156,"lng":4.085151098326594},{"playerName":"Calamityx7 (YouTube)","playerId":"5a4416461cbd1557001a0de9","roundScoreInPoints":2730,"distanceInMeters":377999.6882564472,"lat":43.393874181186,"lng":3.386255208149973},{"playerName":"NSJ","playerId":"5eff39a44fc569935426f9eb","roundScoreInPoints":4009,"distanceInMeters":137930.1719788569,"lat":45.83762345820172,"lng":1.2713105498816235},{"playerName":"Knud","playerId":"5e3fd81ae9473f7b28bc8c2f","roundScoreInPoints":4037,"distanceInMeters":133733.1791174306,"lat":46.871505967924556,"lng":0.7625998462722894},{"playerName":"blockchain prenup","playerId":"590ab19cb979e3c788527f5f","roundScoreInPoints":3600,"distanceInMeters":205160.2712929789,"lat":47.814014250963545,"lng":4.71611410991124},{"playerName":"JesseBear","playerId":"56111858acdaa1481c515db8","roundScoreInPoints":3868,"distanceInMeters":160425.3589449582,"lat":45.41332089511162,"lng":3.338021408804095},{"playerName":"Wh Venom","playerId":"6007461273cc03000160e61d","roundScoreInPoints":4397,"distanceInMeters":80241.5878079146,"lat":47.456878394063644,"lng":2.4494625278195414},{"playerName":"Noemii Ven","playerId":"5c4739e93d925b4af4b71007","roundScoreInPoints":4867,"distanceInMeters":16869.0477254489,"lat":46.62590806106696,"lng":2.660125207561199},{"playerName":"MJorgen00","playerId":"5add22a0582de23664deb5f0","roundScoreInPoints":2944,"distanceInMeters":330901.534169953,"lat":43.894281528365326,"lng":3.76367359496228},{"playerName":"Ben Keller","playerId":"586f07790eac72086c34a57b","roundScoreInPoints":4715,"distanceInMeters":36725.9240355965,"lat":46.46273910299575,"lng":2.7777611633075106},{"playerName":"Mister Blue (Youtube Channel)","playerId":"5cda05c88701a8aa94a42a06","roundScoreInPoints":3242,"distanceInMeters":270664.3343263344,"lat":47.206209959410614,"lng":-0.9919136320380617},{"playerName":"HugoAlvara2","playerId":"5e8609cb3d4b6a3cf8dcfc9c","roundScoreInPoints":3357,"distanceInMeters":248924.5896988455,"lat":47.605152311101456,"lng":-0.5266712767462778},{"playerName":"Markus","playerId":"56ea88b8148a781b143aec68","roundScoreInPoints":3044,"distanceInMeters":310060.3416673711,"lat":44.5685320707978,"lng":-0.0011715626646813249},{"playerName":"hee hee I am micheal jackson","playerId":"5f0bb6300bd1e046649c4436","roundScoreInPoints":3706,"distanceInMeters":187116.3201642601,"lat":45.748623380571715,"lng":0.5385173812410171},{"playerName":"Xandi4","playerId":"5f27501b58a30e00019fc7f4","roundScoreInPoints":4007,"distanceInMeters":138323.839171961,"lat":45.863330030996146,"lng":1.2258439339250948},{"playerName":"Flavdsv","playerId":"5bc387b1fdd59823e4fac52a","roundScoreInPoints":3038,"distanceInMeters":311370.0524619025,"lat":44.770279921093284,"lng":-0.34982513985217345},{"playerName":"SovietSpy","playerId":"5d47e78824ec173888d68999","roundScoreInPoints":2737,"distanceInMeters":376536.0605733488,"lat":47.84184231252783,"lng":-2.2112732910585597},{"playerName":"Mixhond","playerId":"6005591ea5ecaa0001488da5","roundScoreInPoints":2446,"distanceInMeters":446571.443782042,"lat":43.636360320612425,"lng":6.133294456315341},{"playerName":"MrYamazaky","playerId":"54a5e52fa737a7ab64a2d557","roundScoreInPoints":3113,"distanceInMeters":295943.4868855951,"lat":44.08456975433504,"lng":2.1853393413899935},{"playerName":"BOKSA","playerId":"5b6ae3177135fa0e48b4df1f","roundScoreInPoints":3481,"distanceInMeters":226162.7289674564,"lat":46.05030233404736,"lng":5.284928730043754},{"playerName":"whereisalex","playerId":"5d4971123b4b6a4968627ca4","roundScoreInPoints":3034,"distanceInMeters":312091.313395963,"lat":47.67878473412404,"lng":6.40078500143042},{"playerName":"Jonny Tickle","playerId":"5a8bf81042305f3fd4f52ecf","roundScoreInPoints":2921,"distanceInMeters":335915.3297083445,"lat":43.72585418268553,"lng":2.865085333811761},{"playerName":"utilisateurinconnu","playerId":"5fb06413a07ff60001fe92fc","roundScoreInPoints":3310,"distanceInMeters":257656.0586601108,"lat":44.74633308258177,"lng":4.209761028209966},{"playerName":"Giovanni1798p","playerId":"585ab14c0eac725eb84e625e","roundScoreInPoints":3438,"distanceInMeters":234026.5691597578,"lat":44.73431563972461,"lng":1.5783715962922997},{"playerName":"Simerodge (Twitch)","playerId":"56b63c594da173bbf412746f","roundScoreInPoints":3657,"distanceInMeters":195486.7896129346,"lat":48.34427786890786,"lng":1.4553014740488246},{"playerName":"Daniel Latosinski","playerId":"597e1fb3a237ab6bf0b368a2","roundScoreInPoints":992,"distanceInMeters":1010838.4018508528,"lat":38.33709781237942,"lng":-2.226471803708776},{"playerName":"Equinox772","playerId":"5cc1545b8701a898fc423332","roundScoreInPoints":2516,"distanceInMeters":428981.4647169225,"lat":50.58239916322297,"lng":2.049852517595072},{"playerName":"Dfaridchavana","playerId":"5acd6068582de23c50e2bd71","roundScoreInPoints":4136,"distanceInMeters":118570.1352459362,"lat":46.20619569112244,"lng":3.8519357863059334},{"playerName":"The59Soundbite","playerId":"54a7420ba737a7ab64a2d7cc","roundScoreInPoints":3432,"distanceInMeters":235085.5037790456,"lat":45.392304074276055,"lng":4.86087169603362},{"playerName":"Myck","playerId":"554641fe325417fc783d3ef3","roundScoreInPoints":4286,"distanceInMeters":96268.3598004698,"lat":46.234741592334665,"lng":1.4837104268807266},{"playerName":"(\u0E07 \u0360\u00B0 \u035F\u0644\u035C \u0361\u00B0)\u0E07","playerId":"5ef922a47410d364c0f4573f","roundScoreInPoints":3144,"distanceInMeters":289848.397695273,"lat":46.43218831684051,"lng":6.275715313849375},{"playerName":"GUGGE","playerId":"5e5af0ef26bbda0a34329e06","roundScoreInPoints":3092,"distanceInMeters":300179.4699315134,"lat":45.65423760996255,"lng":-1.0649156170096874},{"playerName":"Loic13130","playerId":"5aef2d8f2a3e0d46243dd1bc","roundScoreInPoints":2713,"distanceInMeters":381926.4176823778,"lat":43.48577308378776,"lng":0.9354892981485285},{"playerName":"Suzan Dragon","playerId":"5ffe47e62c6fdf000156ed4d","roundScoreInPoints":2705,"distanceInMeters":383835.5643273932,"lat":43.355099700448584,"lng":3.4925001226072627},{"playerName":"Among Us Drip","playerId":"59563435dbd032c678aecbae","roundScoreInPoints":2691,"distanceInMeters":387008.0793767838,"lat":43.60833355022823,"lng":4.674420256974665},{"playerName":"Alex D","playerId":"5dd9bd4c6a1dd6b1d4e391fe","roundScoreInPoints":3579,"distanceInMeters":208893.8664463337,"lat":45.24080501838993,"lng":0.8720461502815136},{"playerName":"Kuba Gw\u00F3\u017Ad\u017A","playerId":"5eeab5d4c40eff35508b636d","roundScoreInPoints":4509,"distanceInMeters":64635.923057355,"lat":46.23745870023771,"lng":2.941800065195457},{"playerName":"Kevin Croner","playerId":"5cd01b626cca66315479c590","roundScoreInPoints":3105,"distanceInMeters":297574.5273672235,"lat":46.494400051205155,"lng":6.389029226575609},{"playerName":"vulkanisch","playerId":"5f0f948d0624d4374c1f0594","roundScoreInPoints":4723,"distanceInMeters":35583.2807174778,"lat":46.42259998842621,"lng":2.6000301063381492},{"playerName":"Ionica Meseri","playerId":"5aa5782542305f89a0f9f17c","roundScoreInPoints":3595,"distanceInMeters":206163.6433691436,"lat":48.45663565151796,"lng":1.4828201524530282},{"playerName":"llub888","playerId":"5ef0386f0e480c71c86abcb6","roundScoreInPoints":3187,"distanceInMeters":281377.3158408535,"lat":46.61285660238545,"lng":6.192498077859834},{"playerName":"Shumi Oboloso","playerId":"5ef46c28f5a9c52d9061095f","roundScoreInPoints":2971,"distanceInMeters":325209.8354475032,"lat":49.56147532092239,"lng":3.643213650793582},{"playerName":"Ben F.","playerId":"5e7ea0d5cd30753eb4bea86b","roundScoreInPoints":3960,"distanceInMeters":145757.7237375715,"lat":47.92845089252123,"lng":1.704081046750563},{"playerName":"snowfall!","playerId":"5e3711ede9473f5ec8dc5767","roundScoreInPoints":3616,"distanceInMeters":202544.2295619082,"lat":45.46701756547456,"lng":4.392871584620632},{"playerName":"Lamajaestadesnuda","playerId":"5e8898183d4b6a5f98da4d07","roundScoreInPoints":2271,"distanceInMeters":492962.757940998,"lat":43.11992122088973,"lng":6.133181870586482},{"playerName":"C\u00FCplidude","playerId":"5e85fd282ad6cf5728cb7805","roundScoreInPoints":3201,"distanceInMeters":278538.8675054353,"lat":46.21619209580888,"lng":-1.04997474284112},{"playerName":"Emil Hofman","playerId":"55407a150b70ea1c90fb6eb2","roundScoreInPoints":2973,"distanceInMeters":324802.0837325122,"lat":49.5621512436219,"lng":3.617913086625504},{"playerName":"Mvem","playerId":"57b9377d177ccfcb041372f4","roundScoreInPoints":3186,"distanceInMeters":281561.6536461882,"lat":44.20901988577843,"lng":2.286387452679608},{"playerName":"Bwliu","playerId":"5e77c3a6cd30757430fe1fb0","roundScoreInPoints":3210,"distanceInMeters":276818.9067325194,"lat":49.13785884470833,"lng":3.488183083214018},{"playerName":"Zatsura Hoover","playerId":"5ffc70238527e00001055111","roundScoreInPoints":2673,"distanceInMeters":391207.1225853768,"lat":43.9513775083945,"lng":5.568647526487136},{"playerName":"Seppo","playerId":"59caa5c7d8fe1d5b3063fbf1","roundScoreInPoints":3612,"distanceInMeters":203171.0927889219,"lat":45.35681210447266,"lng":0.782221696430061},{"playerName":"Totem","playerId":"567acc679638a144acb018fc","roundScoreInPoints":3987,"distanceInMeters":141465.0072636135,"lat":45.725427355491114,"lng":1.3919490561216108},{"playerName":"Freddo","playerId":"5fece05555afe7000183e3f1","roundScoreInPoints":2234,"distanceInMeters":503362.6685900522,"lat":43.53352675514851,"lng":7.04641780121714},{"playerName":"MaxFI","playerId":"56d469dce5cc36a0088ade7d","roundScoreInPoints":3643,"distanceInMeters":197784.6789942219,"lat":44.960629412876905,"lng":2.3607960894163416},{"playerName":"Tomvdb98","playerId":"568357b8b19e82f958d49620","roundScoreInPoints":2850,"distanceInMeters":351084.7325332424,"lat":43.58739776209869,"lng":2.181813833294135},{"playerName":"Gweilowizard","playerId":"5988a813fdab8f163023ea10","roundScoreInPoints":3544,"distanceInMeters":214960.9594723041,"lat":44.891769557922295,"lng":3.338719483584356},{"playerName":"Gamerrg16","playerId":"5e84b3a03d4b6a64e0286c13","roundScoreInPoints":4004,"distanceInMeters":138761.4394606039,"lat":45.48848680414227,"lng":2.5205859657704277},{"playerName":"Svedka Katrip","playerId":"5d9bbb62df1dd6c514ca9f61","roundScoreInPoints":2866,"distanceInMeters":347747.7075903122,"lat":48.14402693310508,"lng":-1.6213621045601645},{"playerName":"Julian Neeleman","playerId":"5e48124112777c7d34a180bc","roundScoreInPoints":3348,"distanceInMeters":250509.0555376456,"lat":45.19366081958687,"lng":4.870920332562434},{"playerName":"Benjamin Hacker","playerId":"5ffef24a720e43000190c081","roundScoreInPoints":3374,"distanceInMeters":245750.8987108606,"lat":44.59643452200148,"lng":3.2992461050026467},{"playerName":"Essam Faltas","playerId":"5ff5eff123c6b300011323bf","roundScoreInPoints":3682,"distanceInMeters":191142.5916067577,"lat":45.925955794192014,"lng":0.312914978403529},{"playerName":"Actuary Superb","playerId":"5e857f082ad6cf0108e5b64e","roundScoreInPoints":2664,"distanceInMeters":393257.9386500932,"lat":43.66620662259703,"lng":5.001373968017941},{"playerName":"Kobeatss","playerId":"5f4d295526ac9800018a1229","roundScoreInPoints":3028,"distanceInMeters":313340.9418019192,"lat":47.11841805408207,"lng":-1.5801298322261692},{"playerName":"Carlos Omse","playerId":"5f191412955ae60001d90d81","roundScoreInPoints":2660,"distanceInMeters":394397.9823994469,"lat":43.8842746397518,"lng":-0.49113761470482586},{"playerName":"Mahbows","playerId":"5674230b9638a165744d848a","roundScoreInPoints":3015,"distanceInMeters":315952.2811675446,"lat":44.304643428073554,"lng":4.607065234886978},{"playerName":"13374269666","playerId":"5b675cd171daa40ad0bdeb71","roundScoreInPoints":3148,"distanceInMeters":289081.4126267306,"lat":44.47105162480369,"lng":4.332360969135025},{"playerName":"_rossi","playerId":"5ff231ef2fbd2f0001e51a72","roundScoreInPoints":2406,"distanceInMeters":457038.9672161516,"lat":43.52804016641896,"lng":6.15258814632178},{"playerName":"jakie","playerId":"5644402155660c3334065a40","roundScoreInPoints":2993,"distanceInMeters":320668.4928940775,"lat":43.93034787915031,"lng":3.455506822594785},{"playerName":"orava","playerId":"60018bb6272d450001a85d1d","roundScoreInPoints":2817,"distanceInMeters":358441.2495227529,"lat":43.60771337978955,"lng":1.4067641686546928},{"playerName":"Kuba R\u00F6zpruwacz","playerId":"57586922c3eb4f2fd408b99b","roundScoreInPoints":3388,"distanceInMeters":243190.4075908428,"lat":44.802015617500636,"lng":3.9719112438711477},{"playerName":"Koviho (Twitch)","playerId":"56b3532e4da173bbf41266cb","roundScoreInPoints":2825,"distanceInMeters":356752.5631847672,"lat":48.09328767954546,"lng":6.805919013757951},{"playerName":"Ben Dez","playerId":"5d468dd724ec173888d651f2","roundScoreInPoints":3380,"distanceInMeters":244672.0276349908,"lat":44.90651413375646,"lng":0.7546908157562626},{"playerName":"TeddyFerrand","playerId":"5f0f9d7d35d07c3f986e1a9e","roundScoreInPoints":2754,"distanceInMeters":372627.3398228932,"lat":43.84086998821297,"lng":4.9076107984988715},{"playerName":"FFF","playerId":"5d7f8f6eea473fb5ecd26160","roundScoreInPoints":2860,"distanceInMeters":348946.9018350784,"lat":43.69579585501629,"lng":1.4057488655065526},{"playerName":"Lenn the Man","playerId":"5b4899f5b56fe41a1831bba4","roundScoreInPoints":3175,"distanceInMeters":283623.1113088358,"lat":48.81655894547964,"lng":4.705651913864819},{"playerName":"Philipp Zorn","playerId":"5a4a3a173e8e0370a8f68b95","roundScoreInPoints":3893,"distanceInMeters":156335.0001354391,"lat":47.41453735399711,"lng":0.7000670895829986},{"playerName":"Marcative","playerId":"600885dd8b224300016f9e0c","roundScoreInPoints":4129,"distanceInMeters":119505.2231118258,"lat":45.663967066799884,"lng":2.4062957421005837},{"playerName":"GeoGuruYT","playerId":"5f4c25038c3ef000010ace88","roundScoreInPoints":2528,"distanceInMeters":426140.671773245,"lat":42.932546060064844,"lng":1.8496417580904563},{"playerName":"Mara44","playerId":"5cdf0526bc79e1967470aad3","roundScoreInPoints":3655,"distanceInMeters":195824.1318843755,"lat":45.25624809364538,"lng":1.134712912021092},{"playerName":"Tymur Schoolota","playerId":"5d84e5dcee473f9c08be25f8","roundScoreInPoints":4077,"distanceInMeters":127493.523754306,"lat":45.590189075545226,"lng":2.465083182916117},{"playerName":"Noahleise","playerId":"5baa42c8a8e5d55294d5af14","roundScoreInPoints":3236,"distanceInMeters":271924.7401490902,"lat":46.4847206914806,"lng":6.049853920794774},{"playerName":"\uD835\uDE3F\uD835\uDE40\uD835\uDE3C\uD835\uDE3F\uD835\uDE48\uD835\uDE3C\uD835\uDE49","playerId":"5f3a0573ef41f70001142a79","roundScoreInPoints":4552,"distanceInMeters":58697.6583327975,"lat":46.23098553232254,"lng":2.729976439527606},{"playerName":"schm1ngo","playerId":"5b58d90371daa40fccbde7ed","roundScoreInPoints":3598,"distanceInMeters":205667.0168779303,"lat":45.14765660357718,"lng":3.8707620732295345},{"playerName":"Madeleineiro","playerId":"5ee8a7d403f80c500c7d271e","roundScoreInPoints":4085,"distanceInMeters":126228.5668454716,"lat":45.986399576432376,"lng":3.7434682056909985},{"playerName":"\u822A","playerId":"5fdad91853f96b0001c7e0e8","roundScoreInPoints":3720,"distanceInMeters":184817.4453971726,"lat":48.20899168905176,"lng":3.6488914937623296},{"playerName":"Iamaf15h","playerId":"570c01878be465698458a366","roundScoreInPoints":2148,"distanceInMeters":527896.1290970799,"lat":41.9939401881085,"lng":2.8152226090269883},{"playerName":"Miruna Carp","playerId":"5e77513bb3ec1744b45eafe8","roundScoreInPoints":3530,"distanceInMeters":217555.564253093,"lat":45.99226027149044,"lng":5.13094892368974},{"playerName":"cai94","playerId":"5c0d2dc24319658eb00059fb","roundScoreInPoints":2682,"distanceInMeters":389135.7530670616,"lat":44.190191144136655,"lng":5.933063170601249},{"playerName":"William Sawatzky","playerId":"5b8d77231ee0107188679c27","roundScoreInPoints":3535,"distanceInMeters":216537.3266732684,"lat":45.04148129770183,"lng":3.8864849942486},{"playerName":"Meirelesleo01","playerId":"600484365a43d90001a9b918","roundScoreInPoints":2692,"distanceInMeters":386828.5531214266,"lat":43.889463722849435,"lng":5.3529699395754164},{"playerName":"Advisory","playerId":"5d537e8924ec173888d844fd","roundScoreInPoints":3023,"distanceInMeters":314451.7452182314,"lat":44.580652180204055,"lng":5.128048578420787},{"playerName":"Elling Bak\u00E5s","playerId":"5ed41d4493122b841c19e7ab","roundScoreInPoints":1424,"distanceInMeters":784524.4509293059,"lat":41.46444209499915,"lng":9.048436895714168},{"playerName":"Kopdog","playerId":"5e7e2962cd30750a50cc3636","roundScoreInPoints":2915,"distanceInMeters":337001.5498809172,"lat":48.166124671414586,"lng":6.4612641636064705},{"playerName":"Karciarz","playerId":"5cca38e99309606444f2e413","roundScoreInPoints":2880,"distanceInMeters":344553.0697105444,"lat":43.66575731687136,"lng":3.0989736148263924},{"playerName":"Chilovechno Moloko","playerId":"600839c66465630001b08ba2","roundScoreInPoints":1330,"distanceInMeters":827423.7326007759,"lat":39.885350628382824,"lng":-1.4919721921788565},{"playerName":"Dariamangia","playerId":"5fd4a64b2eec7c00015bb172","roundScoreInPoints":2414,"distanceInMeters":454818.1751470094,"lat":43.34099473823009,"lng":5.738304946195116},{"playerName":"Dominik Reuab","playerId":"5ffeacec720e430001908f29","roundScoreInPoints":1244,"distanceInMeters":869079.549330565,"lat":40.12109419626607,"lng":-3.235823879705808},{"playerName":"Ryan Kurt","playerId":"5d2b1d613d4b6a6554c11f02","roundScoreInPoints":2671,"distanceInMeters":391680.1048255812,"lat":47.554161818057025,"lng":7.547123991689517},{"playerName":"Jan","playerId":"600212c78eb37000018aa641","roundScoreInPoints":1591,"distanceInMeters":715458.1750118318,"lat":40.47297061559752,"lng":0.47055201998780216},{"playerName":"Joey Wong","playerId":"6004a15d8eb37000018c6cf5","roundScoreInPoints":2996,"distanceInMeters":319942.9961601034,"lat":49.48472196345257,"lng":3.7848369885142263},{"playerName":"Hiyam100","playerId":"57704407813a4f985c966982","roundScoreInPoints":731,"distanceInMeters":1201153.9251967296,"lat":39.053800516684646,"lng":-7.891709225642551},{"playerName":"Mazen Darwish","playerId":"5b43a904cead176c382bdccf","roundScoreInPoints":4525,"distanceInMeters":62392.5865384672,"lat":47.286649672916965,"lng":2.347645154068876},{"playerName":"Alabayz","playerId":"5aa2507442305f89a0f960aa","roundScoreInPoints":752,"distanceInMeters":1183760.120190406,"lat":47.772075355207576,"lng":18.1458777621385},{"playerName":"Danwinks25","playerId":"6005aeaa73cc0300015fb336","roundScoreInPoints":2718,"distanceInMeters":380895.7611462949,"lat":43.328454333127965,"lng":2.999032775734869},{"playerName":"DT","playerId":"58e8bd5e27c28b8514338af7","roundScoreInPoints":358,"distanceInMeters":1646441.975719396,"lat":45.66685076683936,"lng":23.912537306805785},{"playerName":"Aptx14","playerId":"548a20e5a737a7720c39adc7","roundScoreInPoints":2614,"distanceInMeters":405283.4786892497,"lat":43.091598376472945,"lng":2.5293544388035683},{"playerName":"Michalmazurekpl","playerId":"5a8217355eefed5f141fb4bf","roundScoreInPoints":2467,"distanceInMeters":441392.510012094,"lat":42.77346169834063,"lng":2.831737141413111},{"playerName":"Sohail","playerId":"598ddbec17631e7414584a34","roundScoreInPoints":2777,"distanceInMeters":367336.3190588723,"lat":44.29455497479982,"lng":-0.668042133484481},{"playerName":"Franzhaagen","playerId":"5f4991a60088410001ca3689","roundScoreInPoints":2849,"distanceInMeters":351327.1161040699,"lat":49.89330241062854,"lng":2.314674762965434},{"playerName":"R Lucik13","playerId":"5f0d52998551644f80322c8f","roundScoreInPoints":1696,"distanceInMeters":675385.4260851103,"lat":41.07149606954677,"lng":-0.5375015537688776},{"playerName":"IRONTNT","playerId":"5fff0693d6d8a80001644dd7","roundScoreInPoints":1047,"distanceInMeters":977073.387574778,"lat":51.600762686343685,"lng":13.72780869108226},{"playerName":"Dr. Hausig","playerId":"5ef7c87935b56c5538c78103","roundScoreInPoints":2593,"distanceInMeters":410136.6949536175,"lat":49.8185408710932,"lng":5.554799874467675},{"playerName":"Raul Oprescu","playerId":"600198bb5ee376000188ccd3","roundScoreInPoints":1265,"distanceInMeters":858639.8339765299,"lat":41.14894341693969,"lng":-4.907508038054318},{"playerName":"Tiggyvamp","playerId":"56331f555b41f8646cf85123","roundScoreInPoints":2925,"distanceInMeters":335021.2941201295,"lat":49.65719446921287,"lng":3.618141341683918},{"playerName":"Kadir Uslu","playerId":"5e9ac8256ea5101658218d7b","roundScoreInPoints":2023,"distanceInMeters":565366.7230882088,"lat":48.7329948351199,"lng":9.465066474118666},{"playerName":"ConnoR \\\\","playerId":"5e244f9b22bbda424481f943","roundScoreInPoints":521,"distanceInMeters":1412611.0122614736,"lat":35.703996773327844,"lng":-5.912095085574435}],[{"playerName":"granis","playerId":"5a9406e398cc2c6744a92477","roundScoreInPoints":3826,"distanceInMeters":167133.7912393621,"lat":52.723116422878284,"lng":-1.4447217904821628},{"playerName":"Radu C","playerId":"57d301d409f2efcce834fc94","roundScoreInPoints":3501,"distanceInMeters":222717.8445362276,"lat":52.21463970030782,"lng":0.12382421288842593},{"playerName":"Mapper","playerId":"556cd0402bfa312b5485ab61","roundScoreInPoints":3951,"distanceInMeters":147154.1081569826,"lat":53.28752355543553,"lng":-2.37557168108832},{"playerName":"Sagittarius998","playerId":"561e6e8afeb81545584f5c42","roundScoreInPoints":4005,"distanceInMeters":138657.3763776198,"lat":52.94435796882641,"lng":-1.1763793993307026},{"playerName":"Magyaron - GeoGuessr (YouTube)","playerId":"5c4b184898004e87dc4baa50","roundScoreInPoints":3315,"distanceInMeters":256737.1314169941,"lat":51.85947965610933,"lng":-1.064031413766644},{"playerName":"Simi (Twitch/Youtube)","playerId":"59fc5f5c39d8552a6c5e81a2","roundScoreInPoints":3258,"distanceInMeters":267685.3698694284,"lat":51.76671951244351,"lng":-1.159918021313766},{"playerName":"Kurt - Geoguessr (youtube)","playerId":"5eee48419d57a84ae09c6e61","roundScoreInPoints":3904,"distanceInMeters":154568.6125676068,"lat":52.767924342959574,"lng":-0.6203774135644258},{"playerName":"Raidman Mucha","playerId":"5c5c84a5da1de264500b959e","roundScoreInPoints":3952,"distanceInMeters":146967.1982920056,"lat":52.918033878976466,"lng":-1.4627650920269586},{"playerName":"cookie","playerId":"5ede7e46b41b6b7e7c314cf5","roundScoreInPoints":3899,"distanceInMeters":155420.8041205494,"lat":52.76451302299832,"lng":-0.8856418883815897},{"playerName":"Elnath","playerId":"5be57a801f3cf826908cd5ba","roundScoreInPoints":3698,"distanceInMeters":188528.9512459403,"lat":52.54760054966011,"lng":0.202025998769102},{"playerName":"Wolftrekker (YouTube)","playerId":"59a362320ee41f7e90f3ce92","roundScoreInPoints":3707,"distanceInMeters":186939.022064708,"lat":52.48140851709485,"lng":-0.4683257208384095},{"playerName":"stealthisnick","playerId":"5e9c6d8ed502e13eecc68615","roundScoreInPoints":4001,"distanceInMeters":139286.7386709159,"lat":53.75811808093005,"lng":-2.707855881487411},{"playerName":"Mason Hockensmith","playerId":"5588c79e07f3546e0c49c686","roundScoreInPoints":3083,"distanceInMeters":302054.9950228828,"lat":51.44605961611337,"lng":-0.9659444889382662},{"playerName":"JakartaYogurt","playerId":"5c4cb5303d925b4af4b898ec","roundScoreInPoints":3717,"distanceInMeters":185253.1520399817,"lat":52.491374682055785,"lng":-0.6767864584379057},{"playerName":"Pierre","playerId":"5c6840eafa7cd6698082add1","roundScoreInPoints":3174,"distanceInMeters":283878.1491995199,"lat":51.722627337133986,"lng":-1.964682863034235},{"playerName":"FRANCESCO TOFFANIN","playerId":"5ec9718bf45d4914ac38a2f9","roundScoreInPoints":3197,"distanceInMeters":279479.7287763998,"lat":51.73817668556762,"lng":0.44210882178472133},{"playerName":"Alex YP","playerId":"5edd3e697ee0fa5078a354cb","roundScoreInPoints":3552,"distanceInMeters":213647.7820352131,"lat":55.068822703524404,"lng":-3.6111083153673507},{"playerName":"Warren G. Harding","playerId":"5becdeaa3bac7221002eeaf0","roundScoreInPoints":4260,"distanceInMeters":100058.3555001207,"lat":53.344139736947035,"lng":-1.3413070070700983},{"playerName":"Orpheus","playerId":"5d4f39f41d34a0315c27c104","roundScoreInPoints":3387,"distanceInMeters":243385.7680943576,"lat":52.15864642795478,"lng":-2.1783087519941713},{"playerName":"deep-thot","playerId":"56f41715148a781b143b1443","roundScoreInPoints":3545,"distanceInMeters":214779.6288194912,"lat":52.229403902450876,"lng":-0.8862562443161948},{"playerName":"HankScorpio93","playerId":"5c13cd56dfdaaa12c09de021","roundScoreInPoints":3290,"distanceInMeters":261582.2329382132,"lat":52.07841423795343,"lng":1.1451689568566126},{"playerName":"Morqka1913","playerId":"5b2cebc2cead176c3829d59b","roundScoreInPoints":4422,"distanceInMeters":76719.6423844967,"lat":53.51485747844272,"lng":-1.1159123288196615},{"playerName":"xMeRiko","playerId":"5aad9aa618399e275830579d","roundScoreInPoints":4239,"distanceInMeters":103084.2379378284,"lat":53.348183197160324,"lng":-1.4549807420454086},{"playerName":"Geography Challenges (YouTube)","playerId":"560d1fdae6cc626bc8c51c4f","roundScoreInPoints":3532,"distanceInMeters":217174.7527854963,"lat":52.285863758253505,"lng":-1.6231039693811256},{"playerName":"nickydimebags","playerId":"5d6d75d06902e1e288e39b7d","roundScoreInPoints":2437,"distanceInMeters":448961.9595672108,"lat":52.52188792857675,"lng":5.496191892852842},{"playerName":"Alesn Caputo","playerId":"5faf0999baecc90001bee349","roundScoreInPoints":2932,"distanceInMeters":333510.6319654029,"lat":51.22015842235495,"lng":-1.6923407887117636},{"playerName":"Antoine Mou\u00EBs","playerId":"5e9979ce318e4665d866c449","roundScoreInPoints":3399,"distanceInMeters":241077.4501361162,"lat":51.994270409452945,"lng":-0.9337653443822669},