{"nickname":"canvas","startTimeUtc":"2024-01-16T08:24:34.927639Z","tournament":{"players":[{"playerId":"5e99af0a97d6cf5854da8470","playerName":"slashP","totalPoints":17107,"games":[{"gamePoints":17107}]}]},"games":[{"allGuesses":[[{"playerName":"slashP","playerId":"5e99af0a97d6cf5854da8470","roundScoreInPoints":3766,"distanceInMeters":525830.9442496744,"time":10,"lat":-2.7932070454692868,"lng":116.03616510540829}],[{"playerName":"slashP","playerId":"5e99af0a97d6cf5854da8470","roundScoreInPoints":3110,"distanceInMeters":880685.1508130818,"time":5,"lat":51.00290981107601,"lng":4.678343700737502}],[{"playerName":"slashP","playerId":"5e99af0a97d6cf5854da8470","roundScoreInPoints":4683,"distanceInMeters":121519.9887602444,"time":5,"lat":3.4517824456791932,"lng":102.84702933929674}],[{"playerName":"slashP","playerId":"5e99af0a97d6cf5854da8470","roundScoreInPoints":4838,"distanceInMeters":61100.4807075777,"time":14,"lat":37.168419391824195,"lng":127.47503115208497}],[{"playerName":"slashP","playerId":"5e99af0a97d6cf5854da8470","roundScoreInPoints":710,"distanceInMeters":3621050.8432803703,"time":17,"lat":12.288169791504364,"lng":103.0646452747723}]],"playerGames":[{"player":"slashP","playerId":"5e99af0a97d6cf5854da8470","points":17107,"r1":{"points":3766,"time":10},"r2":{"points":3110,"time":5},"r3":{"points":4683,"time":5},"r4":{"points":4838,"time":14},"r5":{"points":710,"time":17},"eliminatedInGame":"\u002B","totalDistanceInMeters":5210187.407810949,"totalTime":50,"pinUrl":"pin/d0cc47f88fcc4efd23b8baf7808d2b1a.png"}],"answers":[{"lat":-5.609193993255919,"lng":119.84584945011336,"countryCode":"ID","countryName":"Indonesia"},{"lat":44.66150069981294,"lng":11.766192114272073,"countryCode":"IT","countryName":"Italy"},{"lat":3.9970595889112266,"lng":101.89791715654087,"countryCode":"MY","countryName":"Malaysia"},{"lat":37.39689796645334,"lng":126.84694837926861,"countryCode":"KR","countryName":"Korea (the Republic of)"},{"lat":35.6427931200538,"lng":128.21625034563644,"countryCode":"KR","countryName":"Korea (the Republic of)"}],"mapName":"An Arbitrary World","gameNumber":1,"gameUrl":"https://www.geoguessr.com/results/yBXSGlgpJVIc2tQ2","gameId":"yBXSGlgpJVIc2tQ2","gameDescription":"20 sec. No move","playedWithEliminations":true,"forbidMoving":true,"forbidRotating":false,"forbidZooming":false,"timeLimit":20}]}