{"nickname":"top","startTimeUtc":"2024-01-16T08:18:11.6256304Z","tournament":{"players":[{"playerId":"5e99af0a97d6cf5854da8470","playerName":"slashP","totalPoints":19405,"games":[{"gamePoints":19405}]}]},"games":[{"allGuesses":[[{"playerName":"slashP","playerId":"5e99af0a97d6cf5854da8470","roundScoreInPoints":4741,"distanceInMeters":98621.4995953003,"time":13,"lat":40.44120792491013,"lng":21.73705066603964}],[{"playerName":"slashP","playerId":"5e99af0a97d6cf5854da8470","roundScoreInPoints":4806,"distanceInMeters":73592.4404195608,"time":5,"lat":38.465710875128586,"lng":34.802217139216026}],[{"playerName":"slashP","playerId":"5e99af0a97d6cf5854da8470","roundScoreInPoints":3342,"distanceInMeters":747422.9096648619,"time":8,"lat":-36.357834361626324,"lng":148.7268799146368}],[{"playerName":"slashP","playerId":"5e99af0a97d6cf5854da8470","roundScoreInPoints":3606,"distanceInMeters":606331.8285794217,"time":5,"lat":55.59767215366622,"lng":-119.27466273484733}],[{"playerName":"slashP","playerId":"5e99af0a97d6cf5854da8470","roundScoreInPoints":2910,"distanceInMeters":1004435.8746008,"time":8,"lat":-3.971642499205511,"lng":105.09301619051809}]],"playerGames":[{"player":"slashP","playerId":"5e99af0a97d6cf5854da8470","points":19405,"r1":{"points":4741,"time":13},"r2":{"points":4806,"time":5},"r3":{"points":3342,"time":8},"r4":{"points":3606,"time":5},"r5":{"points":2910,"time":8},"eliminatedInGame":"1","totalDistanceInMeters":2530404.5528599443,"totalTime":40,"pinUrl":"pin/d0cc47f88fcc4efd23b8baf7808d2b1a.png"}],"answers":[{"lat":40.701768702584445,"lng":22.853165316506022,"countryCode":"GR","countryName":"Greece"},{"lat":38.31015722689324,"lng":33.981503213012864,"countryCode":"TR","countryName":"Turkiye"},{"lat":-42.98996700004887,"lng":147.3032462728047,"countryCode":"AU","countryName":"Australia"},{"lat":60.918140667056676,"lng":-116.99711983586846,"countryCode":"CA","countryName":"Canada"},{"lat":2.8971609681331305,"lng":99.22267346960221,"countryCode":"ID","countryName":"Indonesia"}],"mapName":"An Arbitrary World","gameNumber":1,"gameUrl":"https://www.geoguessr.com/results/LaqiXNG9qC6yJlBC","gameId":"LaqiXNG9qC6yJlBC","gameDescription":"30 sec. No move","playedWithEliminations":true,"forbidMoving":true,"forbidRotating":false,"forbidZooming":false,"timeLimit":30}]}