{"nickname":"paper","startTimeUtc":"2023-03-20T21:13:16.3133686Z","tournament":{"players":[{"playerId":"5fd7dc712050e80001e974cd","playerName":"Per-Kristian","totalPoints":51087,"games":[{"gamePoints":15171},{"gamePoints":19309},{"gamePoints":16607}]}]},"games":[{"allGuesses":[[{"playerName":"Per-Kristian","playerId":"5fd7dc712050e80001e974cd","roundScoreInPoints":3479,"distanceInMeters":673020.5177697734,"time":7,"lat":-33.01092380112059,"lng":-62.34323842772851}],[{"playerName":"Per-Kristian","playerId":"5fd7dc712050e80001e974cd","roundScoreInPoints":3361,"distanceInMeters":736654.2606562751,"time":5,"lat":-30.962429958492027,"lng":-67.31154797108255}],[{"playerName":"Per-Kristian","playerId":"5fd7dc712050e80001e974cd","roundScoreInPoints":4585,"distanceInMeters":160739.0269836164,"time":6,"lat":48.372139195404756,"lng":24.563889930338824}],[{"playerName":"Per-Kristian","playerId":"5fd7dc712050e80001e974cd","roundScoreInPoints":4072,"distanceInMeters":380665.9349633206,"time":10,"lat":36.98548225087242,"lng":-91.11927131114848}],[{"playerName":"Per-Kristian","playerId":"5fd7dc712050e80001e974cd","roundScoreInPoints":1110,"distanceInMeters":2792048.8331828346,"time":9,"lat":18.676544764152442,"lng":-98.84345598585568}]],"playerGames":[{"player":"Per-Kristian","playerId":"5fd7dc712050e80001e974cd","points":16607,"r1":{"points":3479,"time":7},"r2":{"points":3361,"time":5},"r3":{"points":4585,"time":6},"r4":{"points":4072,"time":10},"r5":{"points":1110,"time":9},"eliminatedInGame":null,"totalDistanceInMeters":4743128.57355582,"totalTime":37,"pinUrl":"pin/830874a5e848b4daba259246f8f8d60d.png"}],"answers":[{"lat":-28.902706,"lng":-67.52919,"countryCode":"AR","countryName":"Argentina"},{"lat":-37.514053,"lng":-66.12147,"countryCode":"AR","countryName":"Argentina"},{"lat":49.507725,"lng":23.201992,"countryCode":"UA","countryName":"Ukraine"},{"lat":36.5356709918216,"lng":-86.8827864087115,"countryCode":"US","countryName":"United States of America (the)"},{"lat":10.497472,"lng":-74.275314,"countryCode":"CO","countryName":"Colombia"}],"mapName":"An Arbitrary World","gameNumber":3,"gameUrl":"https://www.geoguessr.com/results/LQ8MXqpn665DD6CY","gameId":"LQ8MXqpn665DD6CY","gameDescription":"10 sec. No move","playedWithEliminations":false,"forbidMoving":true,"forbidRotating":false,"forbidZooming":false,"timeLimit":10},{"allGuesses":[[{"playerName":"Per-Kristian","playerId":"5fd7dc712050e80001e974cd","roundScoreInPoints":4829,"distanceInMeters":64624.5951981649,"time":10,"lat":32.22845031833987,"lng":35.169807379819346}],[{"playerName":"Per-Kristian","playerId":"5fd7dc712050e80001e974cd","roundScoreInPoints":1401,"distanceInMeters":2360757.0949424664,"time":10,"lat":15.47558271837722,"lng":104.85991146590202}],[{"playerName":"Per-Kristian","playerId":"5fd7dc712050e80001e974cd","roundScoreInPoints":3729,"distanceInMeters":543934.5904931506,"time":5,"lat":-30.949579282798663,"lng":124.68309211807984}],[{"playerName":"Per-Kristian","playerId":"5fd7dc712050e80001e974cd","roundScoreInPoints":4545,"distanceInMeters":176851.7394826363,"time":5,"lat":-22.171959237816747,"lng":119.34990164135368}],[{"playerName":"Per-Kristian","playerId":"5fd7dc712050e80001e974cd","roundScoreInPoints":4805,"distanceInMeters":73904.433501744,"time":8,"lat":42.39976418571652,"lng":19.791011120803358}]],"playerGames":[{"player":"Per-Kristian","playerId":"5fd7dc712050e80001e974cd","points":19309,"r1":{"points":4829,"time":10},"r2":{"points":1401,"time":10},"r3":{"points":3729,"time":5},"r4":{"points":4545,"time":5},"r5":{"points":4805,"time":8},"eliminatedInGame":null,"totalDistanceInMeters":3220072.453618162,"totalTime":37,"pinUrl":"pin/830874a5e848b4daba259246f8f8d60d.png"}],"answers":[{"lat":31.647406,"lng":35.184765,"countryCode":"PS","countryName":"Palestine, State of"},{"lat":7.5904646,"lng":125.00047,"countryCode":"PH","countryName":"Philippines (the)"},{"lat":-33.631874,"lng":119.84258,"countryCode":"AU","countryName":"Australia"},{"lat":-20.779953,"lng":118.52312,"countryCode":"AU","countryName":"Australia"},{"lat":42.397747,"lng":18.89099,"countryCode":"ME","countryName":"Montenegro"}],"mapName":"An Arbitrary World","gameNumber":2,"gameUrl":"https://www.geoguessr.com/results/W3rUtHdmO7Bkw2Fv","gameId":"W3rUtHdmO7Bkw2Fv","gameDescription":"10 sec. No move","playedWithEliminations":false,"forbidMoving":true,"forbidRotating":false,"forbidZooming":false,"timeLimit":10},{"allGuesses":[[{"playerName":"Per-Kristian","playerId":"5fd7dc712050e80001e974cd","roundScoreInPoints":3385,"distanceInMeters":723851.3591187668,"time":9,"lat":36.38443737968692,"lng":-107.87100173285654}],[{"playerName":"Per-Kristian","playerId":"5fd7dc712050e80001e974cd","roundScoreInPoints":27,"distanceInMeters":9702918.857330184,"time":5,"lat":35.868727269028426,"lng":139.45077772791905}],[{"playerName":"Per-Kristian","playerId":"5fd7dc712050e80001e974cd","roundScoreInPoints":4889,"distanceInMeters":41488.1300011581,"time":5,"lat":-0.5455409835417296,"lng":-79.08056837392617}],[{"playerName":"Per-Kristian","playerId":"5fd7dc712050e80001e974cd","roundScoreInPoints":4529,"distanceInMeters":183597.8694763506,"time":5,"lat":4.507813664067786,"lng":102.13744514205719}],[{"playerName":"Per-Kristian","playerId":"5fd7dc712050e80001e974cd","roundScoreInPoints":2341,"distanceInMeters":1407958.7741953344,"time":7,"lat":44.16027664757948,"lng":23.27902240547478}]],"playerGames":[{"player":"Per-Kristian","playerId":"5fd7dc712050e80001e974cd","points":15171,"r1":{"points":3385,"time":9},"r2":{"points":27,"time":5},"r3":{"points":4889,"time":5},"r4":{"points":4529,"time":5},"r5":{"points":2341,"time":7},"eliminatedInGame":null,"totalDistanceInMeters":12059814.990121793,"totalTime":31,"pinUrl":"pin/830874a5e848b4daba259246f8f8d60d.png"}],"answers":[{"lat":40.7388076504218,"lng":-114.065033497235,"countryCode":"US","countryName":"United States of America (the)"},{"lat":46.724857633773,"lng":6.45799496547655,"countryCode":"CH","countryName":"Switzerland"},{"lat":-0.19200695,"lng":-79.199844,"countryCode":"EC","countryName":"Ecuador"},{"lat":5.70545651616579,"lng":100.996276709756,"countryCode":"MY","countryName":"Malaysia"},{"lat":44.17408,"lng":5.5926228,"countryCode":"FR","countryName":"France"}],"mapName":"An Arbitrary World","gameNumber":1,"gameUrl":"https://www.geoguessr.com/results/98KDWVdwGBKlaufG","gameId":"98KDWVdwGBKlaufG","gameDescription":"10 sec. No move","playedWithEliminations":false,"forbidMoving":true,"forbidRotating":false,"forbidZooming":false,"timeLimit":10}]}