{"nickname":"paper","startTimeUtc":"2023-03-20T21:13:16.3133686Z","tournament":{"players":[{"playerId":"5fd7dc712050e80001e974cd","playerName":"Per-Kristian","totalPoints":15171,"games":[{"gamePoints":15171}]}]},"games":[{"allGuesses":[[{"playerName":"Per-Kristian","playerId":"5fd7dc712050e80001e974cd","roundScoreInPoints":3385,"distanceInMeters":723851.3591187668,"time":9,"lat":36.38443737968692,"lng":-107.87100173285654}],[{"playerName":"Per-Kristian","playerId":"5fd7dc712050e80001e974cd","roundScoreInPoints":27,"distanceInMeters":9702918.857330184,"time":5,"lat":35.868727269028426,"lng":139.45077772791905}],[{"playerName":"Per-Kristian","playerId":"5fd7dc712050e80001e974cd","roundScoreInPoints":4889,"distanceInMeters":41488.1300011581,"time":5,"lat":-0.5455409835417296,"lng":-79.08056837392617}],[{"playerName":"Per-Kristian","playerId":"5fd7dc712050e80001e974cd","roundScoreInPoints":4529,"distanceInMeters":183597.8694763506,"time":5,"lat":4.507813664067786,"lng":102.13744514205719}],[{"playerName":"Per-Kristian","playerId":"5fd7dc712050e80001e974cd","roundScoreInPoints":2341,"distanceInMeters":1407958.7741953344,"time":7,"lat":44.16027664757948,"lng":23.27902240547478}]],"playerGames":[{"player":"Per-Kristian","playerId":"5fd7dc712050e80001e974cd","points":15171,"r1":{"points":3385,"time":9},"r2":{"points":27,"time":5},"r3":{"points":4889,"time":5},"r4":{"points":4529,"time":5},"r5":{"points":2341,"time":7},"eliminatedInGame":null,"totalDistanceInMeters":12059814.990121793,"totalTime":31,"pinUrl":"pin/830874a5e848b4daba259246f8f8d60d.png"}],"answers":[{"lat":40.7388076504218,"lng":-114.065033497235,"countryCode":"US","countryName":"United States of America (the)"},{"lat":46.724857633773,"lng":6.45799496547655,"countryCode":"CH","countryName":"Switzerland"},{"lat":-0.19200695,"lng":-79.199844,"countryCode":"EC","countryName":"Ecuador"},{"lat":5.70545651616579,"lng":100.996276709756,"countryCode":"MY","countryName":"Malaysia"},{"lat":44.17408,"lng":5.5926228,"countryCode":"FR","countryName":"France"}],"mapName":"An Arbitrary World","gameNumber":1,"gameUrl":"https://www.geoguessr.com/results/98KDWVdwGBKlaufG","gameId":"98KDWVdwGBKlaufG","gameDescription":"10 sec. No move","playedWithEliminations":false,"forbidMoving":true,"forbidRotating":false,"forbidZooming":false,"timeLimit":10}]}