{"nickname":"stage","startTimeUtc":"2022-12-22T10:46:02.1358315Z","tournament":{"players":[{"playerId":"5fd7dc712050e80001e974cd","playerName":"Per-Kristian","totalPoints":20431,"games":[{"gamePoints":20431}]},{"playerId":"60143021f319580001bcd311","playerName":"H\u00E5kon Lia","totalPoints":2342,"games":[{"gamePoints":2342}]}]},"games":[{"allGuesses":[[{"playerName":"Per-Kristian","playerId":"5fd7dc712050e80001e974cd","roundScoreInPoints":1717,"distanceInMeters":1982837.5108614953,"time":10,"lat":32.23010904644836,"lng":34.86526127180599},{"playerName":"H\u00E5kon Lia","playerId":"60143021f319580001bcd311","roundScoreInPoints":49,"distanceInMeters":8581172.05468101,"time":10,"lat":-27.290980314522635,"lng":25.41721102717304}],[{"playerName":"Per-Kristian","playerId":"5fd7dc712050e80001e974cd","roundScoreInPoints":4607,"distanceInMeters":151951.4211799388,"time":10,"lat":33.514365006588946,"lng":-90.61201159341311},{"playerName":"H\u00E5kon Lia","playerId":"60143021f319580001bcd311","roundScoreInPoints":2261,"distanceInMeters":1471892.3522687552,"time":10,"lat":41.73027350561668,"lng":-75.99137424765854}],[{"playerName":"Per-Kristian","playerId":"5fd7dc712050e80001e974cd","roundScoreInPoints":4282,"distanceInMeters":287499.627011804,"time":10,"lat":36.65069348123955,"lng":-114.37523855184145},{"playerName":"H\u00E5kon Lia","playerId":"60143021f319580001bcd311","roundScoreInPoints":22,"distanceInMeters":10028473.004139703,"time":10,"lat":-43.71912760647571,"lng":-68.72324300219663}],[{"playerName":"Per-Kristian","playerId":"5fd7dc712050e80001e974cd","roundScoreInPoints":4994,"distanceInMeters":2174.6102860837,"time":10,"lat":31.508168048661503,"lng":35.57214092755112},{"playerName":"H\u00E5kon Lia","playerId":"60143021f319580001bcd311","roundScoreInPoints":5,"distanceInMeters":12759847.785977054,"time":10,"lat":-23.620409834914426,"lng":-69.97730161442888}],[{"playerName":"Per-Kristian","playerId":"5fd7dc712050e80001e974cd","roundScoreInPoints":4831,"distanceInMeters":63702.2380138224,"time":10,"lat":-19.990735101248767,"lng":-69.63612449198911},{"playerName":"H\u00E5kon Lia","playerId":"60143021f319580001bcd311","roundScoreInPoints":5,"distanceInMeters":12799775.007987147,"time":10,"lat":38.88447982271932,"lng":36.90363254754135}]],"playerGames":[{"player":"Per-Kristian","playerId":"5fd7dc712050e80001e974cd","points":20431,"r1":{"points":1717,"time":10},"r2":{"points":4607,"time":10},"r3":{"points":4282,"time":10},"r4":{"points":4994,"time":10},"r5":{"points":4831,"time":10},"eliminatedInGame":null,"totalDistanceInMeters":2488165.407353144,"totalTime":50,"pinUrl":"pin/830874a5e848b4daba259246f8f8d60d.png"},{"player":"H\u00E5kon Lia","playerId":"60143021f319580001bcd311","points":2342,"r1":{"points":49,"time":10},"r2":{"points":2261,"time":10},"r3":{"points":22,"time":10},"r4":{"points":5,"time":10},"r5":{"points":5,"time":10},"eliminatedInGame":null,"totalDistanceInMeters":45641160.20505367,"totalTime":50,"pinUrl":"pin/a450f3f36bb4daf9fbf01f98694d1205.png"}],"answers":[{"lat":47.28935,"lng":47.410755,"countryCode":"RU","countryName":"Russian Federation (the)"},{"lat":33.374027,"lng":-88.982956,"countryCode":"US","countryName":"United States of America (the)"},{"lat":37.752555409517,"lng":-111.438439277607,"countryCode":"US","countryName":"United States of America (the)"},{"lat":31.488749,"lng":35.569424,"countryCode":"JO","countryName":"Jordan"},{"lat":-20.510698,"lng":-69.37978,"countryCode":"CL","countryName":"Chile"}],"mapName":"An Arbitrary World","gameNumber":1,"gameUrl":"https://www.geoguessr.com/results/9ba1xscnRnQbBvSJ","gameId":"9ba1xscnRnQbBvSJ","gameDescription":"10 sec. No move","playedWithEliminations":false,"forbidMoving":true,"forbidRotating":false,"forbidZooming":false,"timeLimit":10}]}