{"nickname":"song","startTimeUtc":"2022-12-21T15:29:55.2368408Z","tournament":{"players":[{"playerId":"5fd7dc712050e80001e974cd","playerName":"Per-Kristian","totalPoints":21610,"games":[{"gamePoints":8688},{"gamePoints":12922}]}]},"games":[{"allGuesses":[[{"playerName":"Per-Kristian","playerId":"5fd7dc712050e80001e974cd","roundScoreInPoints":1918,"distanceInMeters":1423608.466001764,"time":10,"lat":8.506223799703562,"lng":123.57113814549268}],[{"playerName":"Per-Kristian","playerId":"5fd7dc712050e80001e974cd","roundScoreInPoints":4983,"distanceInMeters":4928.6113177764,"time":10,"lat":43.9351132336564,"lng":12.418672061342022}],[{"playerName":"Per-Kristian","playerId":"5fd7dc712050e80001e974cd","roundScoreInPoints":1657,"distanceInMeters":1640844.464382888,"time":10,"lat":42.36599412220189,"lng":-92.02632929688173}],[{"playerName":"Per-Kristian","playerId":"5fd7dc712050e80001e974cd","roundScoreInPoints":4359,"distanceInMeters":204001.4443751033,"time":10,"lat":49.581792059403455,"lng":2.7906988473734486}],[{"playerName":"Per-Kristian","playerId":"5fd7dc712050e80001e974cd","roundScoreInPoints":5,"distanceInMeters":10194242.805508018,"time":10,"lat":38.7897437854215,"lng":32.74596239919191}]],"playerGames":[{"player":"Per-Kristian","playerId":"5fd7dc712050e80001e974cd","points":12922,"r1":{"points":1918,"time":10},"r2":{"points":4983,"time":10},"r3":{"points":1657,"time":10},"r4":{"points":4359,"time":10},"r5":{"points":5,"time":10},"eliminatedInGame":null,"totalDistanceInMeters":13467625.79158555,"totalTime":50,"pinUrl":"pin/f13048de65bd4dd305c72f301ee86e8a.png"}],"answers":[{"lat":-3.472816313696555,"lng":119.0401891822386,"countryCode":"ID","countryName":"Indonesia"},{"lat":43.9232880519482,"lng":12.47798569456394,"countryCode":"SM","countryName":"San Marino"},{"lat":29.46894879230095,"lng":-100.9323905895241,"countryCode":"US","countryName":"United States of America (the)"},{"lat":50.48240417740896,"lng":5.279220551302211,"countryCode":"BE","countryName":"Belgium"},{"lat":-8.911857466827502,"lng":117.6985475646771,"countryCode":"ID","countryName":"Indonesia"}],"mapName":"A Rural World","gameNumber":2,"gameUrl":"https://www.geoguessr.com/results/ktOz5tPAS8ziHArx","gameId":"ktOz5tPAS8ziHArx","gameDescription":"10 sec. No move","playedWithEliminations":false,"forbidMoving":true,"forbidRotating":false,"forbidZooming":false,"timeLimit":10},{"allGuesses":[[{"playerName":"Per-Kristian","playerId":"5fd7dc712050e80001e974cd","roundScoreInPoints":2126,"distanceInMeters":1586302.4444850157,"time":5,"lat":54.34301770469803,"lng":57.62174792286402}],[{"playerName":"Per-Kristian","playerId":"5fd7dc712050e80001e974cd","roundScoreInPoints":2490,"distanceInMeters":1292961.0630474607,"time":5,"lat":45.35027029968168,"lng":-87.13700830026778}],[{"playerName":"Per-Kristian","playerId":"5fd7dc712050e80001e974cd","roundScoreInPoints":2594,"distanceInMeters":1217621.4287014515,"time":5,"lat":-31.535151661296588,"lng":150.7664797807481}],[{"playerName":"Per-Kristian","playerId":"5fd7dc712050e80001e974cd","roundScoreInPoints":1478,"distanceInMeters":2260855.5329586007,"time":5,"lat":45.55247305348537,"lng":27.290516700825492}],[{"playerName":"Per-Kristian","playerId":"5fd7dc712050e80001e974cd","roundScoreInPoints":0,"distanceInMeters":19319807.36024986,"time":5,"lat":10.782116472870074,"lng":114.08350579374996}]],"playerGames":[{"player":"Per-Kristian","playerId":"5fd7dc712050e80001e974cd","points":8688,"r1":{"points":2126,"time":5},"r2":{"points":2490,"time":5},"r3":{"points":2594,"time":5},"r4":{"points":1478,"time":5},"r5":{"points":0,"time":5},"eliminatedInGame":null,"totalDistanceInMeters":25677547.82944239,"totalTime":25,"pinUrl":"pin/f13048de65bd4dd305c72f301ee86e8a.png"}],"answers":[{"lat":44.709606,"lng":41.280155,"countryCode":"RU","countryName":"Russian Federation (the)"},{"lat":42.350758,"lng":-71.52866,"countryCode":"US","countryName":"United States of America (the)"},{"lat":-35.38739,"lng":138.46712,"countryCode":"AU","countryName":"Australia"},{"lat":54.69669,"lng":55.955708,"countryCode":"RU","countryName":"Russian Federation (the)"},{"lat":-17.005156,"lng":-65.28845,"countryCode":"BO","countryName":"Bolivia (Plurinational State of)"}],"mapName":"An Arbitrary World","gameNumber":1,"gameUrl":"https://www.geoguessr.com/results/BCHDRwLUfe0Etua8","gameId":"BCHDRwLUfe0Etua8","gameDescription":"5 sec. No move","playedWithEliminations":false,"forbidMoving":true,"forbidRotating":false,"forbidZooming":false,"timeLimit":5}]}