{"nickname":"volcano","startTimeUtc":"2023-04-14T15:32:32.5397198Z","tournament":{"players":[{"playerId":"5fd7dc712050e80001e974cd","playerName":"Per-Kristian","totalPoints":31677,"games":[{"gamePoints":12669},{"gamePoints":19008}]}]},"games":[{"allGuesses":[[{"playerName":"Per-Kristian","playerId":"5fd7dc712050e80001e974cd","roundScoreInPoints":4851,"distanceInMeters":56058.9754504309,"time":6,"lat":31.356174567739767,"lng":35.677053017287676}],[{"playerName":"Per-Kristian","playerId":"5fd7dc712050e80001e974cd","roundScoreInPoints":4800,"distanceInMeters":75785.6705948724,"time":9,"lat":42.211880703866925,"lng":75.84983732057657}],[{"playerName":"Per-Kristian","playerId":"5fd7dc712050e80001e974cd","roundScoreInPoints":4430,"distanceInMeters":224627.4994407981,"time":5,"lat":42.624828353862846,"lng":-75.77122325067583}],[{"playerName":"Per-Kristian","playerId":"5fd7dc712050e80001e974cd","roundScoreInPoints":18,"distanceInMeters":10458514.732103895,"time":9,"lat":26.855378544334688,"lng":-103.6328526579703}],[{"playerName":"Per-Kristian","playerId":"5fd7dc712050e80001e974cd","roundScoreInPoints":4909,"distanceInMeters":33897.318464229,"time":7,"lat":41.616629670629706,"lng":22.471968562400853}]],"playerGames":[{"player":"Per-Kristian","playerId":"5fd7dc712050e80001e974cd","points":19008,"r1":{"points":4851,"time":6},"r2":{"points":4800,"time":9},"r3":{"points":4430,"time":5},"r4":{"points":18,"time":9},"r5":{"points":4909,"time":7},"eliminatedInGame":null,"totalDistanceInMeters":10848884.196054226,"totalTime":36,"pinUrl":"pin/830874a5e848b4daba259246f8f8d60d.png"}],"answers":[{"lat":30.8534978614559,"lng":35.6320638039178,"countryCode":"JO","countryName":"Jordan"},{"lat":42.560772,"lng":76.642525,"countryCode":"KG","countryName":"Kyrgyzstan"},{"lat":42.6919438501063,"lng":-73.0256718927396,"countryCode":"US","countryName":"United States of America (the)"},{"lat":38.4271669828383,"lng":16.5601209131102,"countryCode":"IT","countryName":"Italy"},{"lat":41.435925,"lng":22.79991,"countryCode":"MK","countryName":"North Macedonia"}],"mapName":"An Arbitrary World","gameNumber":2,"gameUrl":"https://www.geoguessr.com/results/GxJJR4biO93mIjaZc","gameId":"GxJJR4biO93mIjaZc","gameDescription":"10 sec. No move","playedWithEliminations":false,"forbidMoving":true,"forbidRotating":false,"forbidZooming":false,"timeLimit":10},{"allGuesses":[[{"playerName":"Per-Kristian","playerId":"5fd7dc712050e80001e974cd","roundScoreInPoints":4044,"distanceInMeters":393684.533927304,"time":6,"lat":37.464899317505456,"lng":140.2583003296156}],[{"playerName":"Per-Kristian","playerId":"5fd7dc712050e80001e974cd","roundScoreInPoints":1703,"distanceInMeters":1998206.095247056,"time":10,"lat":-6.19665963786494,"lng":-78.99455254906302}],[{"playerName":"Per-Kristian","playerId":"5fd7dc712050e80001e974cd","roundScoreInPoints":4257,"distanceInMeters":298638.2628148898,"time":9,"lat":6.500929702378098,"lng":5.5732185050015515}],[{"playerName":"Per-Kristian","playerId":"5fd7dc712050e80001e974cd","roundScoreInPoints":2665,"distanceInMeters":1167483.6235838733,"time":4,"lat":-10.495180848877139,"lng":-43.317804086941116}],[{"playerName":"Per-Kristian","playerId":"5fd7dc712050e80001e974cd","roundScoreInPoints":0,"distanceInMeters":8173440.2726769475,"time":10,"lat":0,"lng":0}]],"playerGames":[{"player":"Per-Kristian","playerId":"5fd7dc712050e80001e974cd","points":12669,"r1":{"points":4044,"time":6},"r2":{"points":1703,"time":10},"r3":{"points":4257,"time":9},"r4":{"points":2665,"time":4},"r5":{"points":0,"time":10},"eliminatedInGame":null,"totalDistanceInMeters":12031452.78825007,"totalTime":39,"pinUrl":"pin/830874a5e848b4daba259246f8f8d60d.png"}],"answers":[{"lat":40.915993,"lng":141.27881,"countryCode":"JP","countryName":"Japan"},{"lat":11.134102,"lng":-74.22031,"countryCode":"CO","countryName":"Colombia"},{"lat":5.074880615870146,"lng":7.860786916609365,"countryCode":"NG","countryName":"Nigeria"},{"lat":-16.805807,"lng":-51.958633,"countryCode":"BR","countryName":"Brazil"},{"lat":3.89652460178928,"lng":-73.4662013913758,"countryCode":"CO","countryName":"Colombia"}],"mapName":"An Arbitrary World","gameNumber":1,"gameUrl":"https://www.geoguessr.com/results/3cgardxgReRWiiaVG","gameId":"3cgardxgReRWiiaVG","gameDescription":"10 sec. No move","playedWithEliminations":false,"forbidMoving":true,"forbidRotating":false,"forbidZooming":false,"timeLimit":10}]}