{"nickname":"tail","startTimeUtc":"2021-02-15T20:50:20.0401247Z","tournament":{"players":[{"playerId":"5e99af0a97d6cf5854da8470","playerName":"slashP","totalPoints":17144,"games":[{"gamePoints":17144}]}]},"games":[{"allGuesses":[[{"playerName":"slashP","playerId":"5e99af0a97d6cf5854da8470","roundScoreInPoints":90,"distanceInMeters":7452475.212766168,"time":10,"lat":48.38620694425499,"lng":-76.22515782565807}],[{"playerName":"slashP","playerId":"5e99af0a97d6cf5854da8470","roundScoreInPoints":3748,"distanceInMeters":534209.9330489751,"time":10,"lat":46.03657658433872,"lng":-2.1277430078850443}],[{"playerName":"slashP","playerId":"5e99af0a97d6cf5854da8470","roundScoreInPoints":4621,"distanceInMeters":146229.2145705485,"time":10,"lat":56.433669249965675,"lng":13.947159855680638}],[{"playerName":"slashP","playerId":"5e99af0a97d6cf5854da8470","roundScoreInPoints":3795,"distanceInMeters":511300.1213344024,"time":10,"lat":39.51953903593756,"lng":35.2166099951059}],[{"playerName":"slashP","playerId":"5e99af0a97d6cf5854da8470","roundScoreInPoints":4890,"distanceInMeters":41303.9194529936,"time":9,"lat":45.69450368013483,"lng":16.894235339301076}]],"playerGames":[{"player":"slashP","playerId":"5e99af0a97d6cf5854da8470","points":17144,"r1":{"points":90,"time":10},"r2":{"points":3748,"time":10},"r3":{"points":4621,"time":10},"r4":{"points":3795,"time":10},"r5":{"points":4890,"time":9},"eliminatedInGame":null,"totalDistanceInMeters":8685518.401173087,"totalTime":49,"pinUrl":"pin/7bb34cfa4431b08534fb01bb09093a1d.png"}],"answers":[{"lat":41.36364246712321,"lng":25.781197174627437,"countryCode":"BG","countryName":"Bulgaria"},{"lat":50.52612697717662,"lng":-4.7009620200651625,"countryCode":"GB","countryName":"United Kingdom"},{"lat":57.67171834453613,"lng":14.76265392260325,"countryCode":"SE","countryName":"Sweden"},{"lat":39.66201499216007,"lng":29.251417320548626,"countryCode":"TR","countryName":"Turkey"},{"lat":45.67672507283384,"lng":17.425344317214353,"countryCode":"HR","countryName":"Croatia"}],"mapName":"A Diverse World","gameNumber":1,"gameUrl":"https://www.geoguessr.com/results/oVlcfepGEo3jf3Ip","gameId":"oVlcfepGEo3jf3Ip","gameDescription":"10 sec. No move","playedWithEliminations":false,"forbidMoving":true,"forbidRotating":false,"forbidZooming":false,"timeLimit":10}]}