{"nickname":"food","startTimeUtc":"2021-05-12T17:44:37.8728144Z","tournament":{"players":[{"playerId":"5e99af0a97d6cf5854da8470","playerName":"slashP","totalPoints":10319,"games":[{"gamePoints":10319},{"gamePoints":0}]}]},"games":[{"allGuesses":[[{"playerName":"slashP","playerId":"5e99af0a97d6cf5854da8470","roundScoreInPoints":0,"distanceInMeters":16139574.10408176,"time":1,"lat":-35.771227393639506,"lng":149.7477357421875}],[{"playerName":"slashP","playerId":"5e99af0a97d6cf5854da8470","roundScoreInPoints":0,"distanceInMeters":4735749.620157451,"time":1,"lat":0,"lng":0}],[{"playerName":"slashP","playerId":"5e99af0a97d6cf5854da8470","roundScoreInPoints":0,"distanceInMeters":5291459.994773384,"time":1,"lat":0,"lng":0}],[{"playerName":"slashP","playerId":"5e99af0a97d6cf5854da8470","roundScoreInPoints":0,"distanceInMeters":4734733.475859231,"time":1,"lat":0,"lng":0}],[{"playerName":"slashP","playerId":"5e99af0a97d6cf5854da8470","roundScoreInPoints":0,"distanceInMeters":5505122.56128306,"time":1,"lat":0,"lng":0}]],"playerGames":[{"player":"slashP","playerId":"5e99af0a97d6cf5854da8470","points":0,"r1":{"points":0,"time":1},"r2":{"points":0,"time":1},"r3":{"points":0,"time":1},"r4":{"points":0,"time":1},"r5":{"points":0,"time":1},"eliminatedInGame":null,"totalDistanceInMeters":36406639.75615489,"totalTime":5,"pinUrl":"pin/7bb34cfa4431b08534fb01bb09093a1d.png"}],"answers":[{"lat":52.635452,"lng":13.442046,"countryCode":"DE","countryName":"Germany"},{"lat":42.56896,"lng":1.4748304,"countryCode":"AD","countryName":"Andorra"},{"lat":47.05858,"lng":8.092286,"countryCode":"CH","countryName":"Switzerland"},{"lat":42.5565,"lng":1.5886588,"countryCode":"AD","countryName":"Andorra"},{"lat":44.918415,"lng":23.510199,"countryCode":"RO","countryName":"Romania"}],"mapName":"An Arbitrary World","gameNumber":2,"gameUrl":"https://www.geoguessr.com/results/oojTzxgnSfOKfsNl","gameId":"oojTzxgnSfOKfsNl","gameDescription":"1 sec. NMPZ","playedWithEliminations":false,"forbidMoving":true,"forbidRotating":true,"forbidZooming":true,"timeLimit":1},{"allGuesses":[[{"playerName":"slashP","playerId":"5e99af0a97d6cf5854da8470","roundScoreInPoints":14,"distanceInMeters":8663859.210743299,"time":4,"lat":50.619690524748854,"lng":18.807183984375}],[{"playerName":"slashP","playerId":"5e99af0a97d6cf5854da8470","roundScoreInPoints":4451,"distanceInMeters":171682.8082538982,"time":4,"lat":32.722931874226276,"lng":35.905450987599636}],[{"playerName":"slashP","playerId":"5e99af0a97d6cf5854da8470","roundScoreInPoints":2,"distanceInMeters":11921223.535914937,"time":4,"lat":4.968911227296066,"lng":-74.93073988249324}],[{"playerName":"slashP","playerId":"5e99af0a97d6cf5854da8470","roundScoreInPoints":4704,"distanceInMeters":90059.1226286211,"time":4,"lat":53.386706133160295,"lng":-7.704692163468906}],[{"playerName":"slashP","playerId":"5e99af0a97d6cf5854da8470","roundScoreInPoints":1148,"distanceInMeters":2171388.923353182,"time":4,"lat":42.55275546758803,"lng":13.937503109920044}]],"playerGames":[{"player":"slashP","playerId":"5e99af0a97d6cf5854da8470","points":10319,"r1":{"points":14,"time":4},"r2":{"points":4451,"time":4},"r3":{"points":2,"time":4},"r4":{"points":4704,"time":4},"r5":{"points":1148,"time":4},"eliminatedInGame":null,"totalDistanceInMeters":23018213.600893937,"totalTime":20,"pinUrl":"pin/7bb34cfa4431b08534fb01bb09093a1d.png"}],"answers":[{"lat":-26.570107,"lng":30.795328,"countryCode":"SZ","countryName":"Eswatini"},{"lat":31.249235,"lng":35.362446,"countryCode":"IL","countryName":"Israel"},{"lat":-38.626106,"lng":176.96854,"countryCode":"NZ","countryName":"New Zealand"},{"lat":52.576958,"lng":-7.6768866,"countryCode":"IE","countryName":"Ireland"},{"lat":32.10252,"lng":34.805447,"countryCode":"IL","countryName":"Israel"}],"mapName":"An Arbitrary World","gameNumber":1,"gameUrl":"https://www.geoguessr.com/results/fImuNdELwozWB8QC","gameId":"fImuNdELwozWB8QC","gameDescription":"4 sec. NMPZ","playedWithEliminations":false,"forbidMoving":true,"forbidRotating":true,"forbidZooming":true,"timeLimit":4}]}