{"nickname":"snakes","startTimeUtc":"2021-05-12T17:31:34.3737533Z","tournament":{"players":[{"playerId":"5e99af0a97d6cf5854da8470","playerName":"slashP","totalPoints":19027,"games":[{"gamePoints":10265},{"gamePoints":8762}]}]},"games":[{"allGuesses":[[{"playerName":"slashP","playerId":"5e99af0a97d6cf5854da8470","roundScoreInPoints":4475,"distanceInMeters":163608.3162541427,"time":5,"lat":23.975938037301052,"lng":91.05555321079436}],[{"playerName":"slashP","playerId":"5e99af0a97d6cf5854da8470","roundScoreInPoints":207,"distanceInMeters":4696520.964601166,"time":5,"lat":-27.95925713962152,"lng":123.54138844770512}],[{"playerName":"slashP","playerId":"5e99af0a97d6cf5854da8470","roundScoreInPoints":0,"distanceInMeters":4425394.681361936,"time":5,"lat":0,"lng":0}],[{"playerName":"slashP","playerId":"5e99af0a97d6cf5854da8470","roundScoreInPoints":668,"distanceInMeters":2970966.2463159845,"time":5,"lat":32.00449217499791,"lng":-102.45845629297133}],[{"playerName":"slashP","playerId":"5e99af0a97d6cf5854da8470","roundScoreInPoints":3412,"distanceInMeters":563974.8779754199,"time":5,"lat":34.78521118843241,"lng":133.4252073697067}]],"playerGames":[{"player":"slashP","playerId":"5e99af0a97d6cf5854da8470","points":8762,"r1":{"points":4475,"time":5},"r2":{"points":207,"time":5},"r3":{"points":0,"time":5},"r4":{"points":668,"time":5},"r5":{"points":3412,"time":5},"eliminatedInGame":null,"totalDistanceInMeters":12820465.086508648,"totalTime":25,"pinUrl":"pin/7bb34cfa4431b08534fb01bb09093a1d.png"}],"answers":[{"lat":22.664469,"lng":90.32913,"countryCode":"BD","countryName":"Bangladesh"},{"lat":-43.744133,"lng":172.83151,"countryCode":"NZ","countryName":"New Zealand"},{"lat":-30.991034,"lng":26.331835,"countryCode":"ZA","countryName":"South Africa"},{"lat":45.53903,"lng":-72.569176,"countryCode":"CA","countryName":"Canada"},{"lat":36.203873,"lng":127.44297,"countryCode":"KR","countryName":"South Korea"}],"mapName":"An Arbitrary World","gameNumber":2,"gameUrl":"https://www.geoguessr.com/results/coS3MpWooQ96h41B","gameId":"coS3MpWooQ96h41B","gameDescription":"5 sec. No move","playedWithEliminations":false,"forbidMoving":true,"forbidRotating":false,"forbidZooming":false,"timeLimit":5},{"allGuesses":[[{"playerName":"slashP","playerId":"5e99af0a97d6cf5854da8470","roundScoreInPoints":2752,"distanceInMeters":881021.9602952363,"time":10,"lat":7.904835128542016,"lng":5.643901800978881}],[{"playerName":"slashP","playerId":"5e99af0a97d6cf5854da8470","roundScoreInPoints":0,"distanceInMeters":4900111.397510138,"time":10,"lat":0,"lng":0}],[{"playerName":"slashP","playerId":"5e99af0a97d6cf5854da8470","roundScoreInPoints":4066,"distanceInMeters":305201.1362184188,"time":10,"lat":-1.7027718441720083,"lng":-78.18473831857517}],[{"playerName":"slashP","playerId":"5e99af0a97d6cf5854da8470","roundScoreInPoints":2581,"distanceInMeters":975621.807629181,"time":10,"lat":-31.402355138302518,"lng":-70.28648867064237}],[{"playerName":"slashP","playerId":"5e99af0a97d6cf5854da8470","roundScoreInPoints":866,"distanceInMeters":2587600.477629517,"time":10,"lat":-0.7600343182905347,"lng":-79.1015450892823}]],"playerGames":[{"player":"slashP","playerId":"5e99af0a97d6cf5854da8470","points":10265,"r1":{"points":2752,"time":10},"r2":{"points":0,"time":10},"r3":{"points":4066,"time":10},"r4":{"points":2581,"time":10},"r5":{"points":866,"time":10},"eliminatedInGame":null,"totalDistanceInMeters":9649556.779282492,"totalTime":50,"pinUrl":"pin/7bb34cfa4431b08534fb01bb09093a1d.png"}],"answers":[{"lat":7.333831,"lng":-2.3292599,"countryCode":"GH","countryName":"Ghana"},{"lat":-19.015812,"lng":-40.536552,"countryCode":"BR","countryName":"Brazil"},{"lat":-4.2439547,"lng":-79.22352,"countryCode":"EC","countryName":"Ecuador"},{"lat":-22.838274,"lng":-68.13956,"countryCode":"CL","countryName":"Chile"},{"lat":20.043943,"lng":-89.742546,"countryCode":"MX","countryName":"Mexico"}],"mapName":"An Arbitrary World","gameNumber":1,"gameUrl":"https://www.geoguessr.com/results/NVgIHxdurTrz9PQB","gameId":"NVgIHxdurTrz9PQB","gameDescription":"10 sec. No move","playedWithEliminations":false,"forbidMoving":true,"forbidRotating":false,"forbidZooming":false,"timeLimit":10}]}