{"nickname":"beds","startTimeUtc":"2021-04-07T20:37:52.0771903Z","tournament":{"players":[{"playerId":"5e99af0a97d6cf5854da8470","playerName":"slashP","totalPoints":45105,"games":[{"gamePoints":13310},{"gamePoints":19118},{"gamePoints":12677}]}]},"games":[{"allGuesses":[[{"playerName":"slashP","playerId":"5e99af0a97d6cf5854da8470","roundScoreInPoints":3667,"distanceInMeters":574810.9002871935,"time":10,"lat":-28.075549375381666,"lng":26.925888628029156}],[{"playerName":"slashP","playerId":"5e99af0a97d6cf5854da8470","roundScoreInPoints":2353,"distanceInMeters":1397031.6292219956,"time":10,"lat":-3.7999722768156543,"lng":-44.27461342906986}],[{"playerName":"slashP","playerId":"5e99af0a97d6cf5854da8470","roundScoreInPoints":0,"distanceInMeters":17650482.79114117,"time":10,"lat":27.48446474326254,"lng":90.2909235998768}],[{"playerName":"slashP","playerId":"5e99af0a97d6cf5854da8470","roundScoreInPoints":3049,"distanceInMeters":916657.3161359332,"time":10,"lat":-32.420842946376716,"lng":-59.28295636390311}],[{"playerName":"slashP","playerId":"5e99af0a97d6cf5854da8470","roundScoreInPoints":3608,"distanceInMeters":604850.1938002293,"time":10,"lat":48.42865561039337,"lng":19.162111654732144}]],"playerGames":[{"player":"slashP","playerId":"5e99af0a97d6cf5854da8470","points":12677,"r1":{"points":3667,"time":10},"r2":{"points":2353,"time":10},"r3":{"points":0,"time":10},"r4":{"points":3049,"time":10},"r5":{"points":3608,"time":10},"eliminatedInGame":null,"totalDistanceInMeters":21143832.830586523,"totalTime":50,"pinUrl":"pin/7bb34cfa4431b08534fb01bb09093a1d.png"}],"answers":[{"lat":-24.07098064956059,"lng":23.28517031518874,"countryCode":"BW","countryName":"Botswana"},{"lat":-15.79984329400022,"lng":-48.059172458320745,"countryCode":"BR","countryName":"Brazil"},{"lat":-28.47946356867804,"lng":-65.61475880476354,"countryCode":"AR","countryName":"Argentina"},{"lat":-33.57807302894133,"lng":-69.0189038171585,"countryCode":"AR","countryName":"Argentina"},{"lat":46.07036354566411,"lng":26.388120693400424,"countryCode":"RO","countryName":"Romania"}],"mapName":"A Diverse World","gameNumber":3,"gameUrl":"https://www.geoguessr.com/results/9g6Dpc3F6b1l3iRS","gameId":"9g6Dpc3F6b1l3iRS","gameDescription":"10 sec. No move","playedWithEliminations":false,"forbidMoving":true,"forbidRotating":false,"forbidZooming":false,"timeLimit":10},{"allGuesses":[[{"playerName":"slashP","playerId":"5e99af0a97d6cf5854da8470","roundScoreInPoints":4829,"distanceInMeters":64590.085848762,"time":10,"lat":47.109131973874234,"lng":10.967161943117787}],[{"playerName":"slashP","playerId":"5e99af0a97d6cf5854da8470","roundScoreInPoints":3284,"distanceInMeters":779437.3951183434,"time":10,"lat":44.6916665195649,"lng":7.500803415246139}],[{"playerName":"slashP","playerId":"5e99af0a97d6cf5854da8470","roundScoreInPoints":3485,"distanceInMeters":669280.375308457,"time":10,"lat":13.36493244049136,"lng":102.81794902283508}],[{"playerName":"slashP","playerId":"5e99af0a97d6cf5854da8470","roundScoreInPoints":4379,"distanceInMeters":245855.8802562946,"time":10,"lat":56.07579836601782,"lng":-3.551298498936603}],[{"playerName":"slashP","playerId":"5e99af0a97d6cf5854da8470","roundScoreInPoints":3141,"distanceInMeters":861555.0076009241,"time":10,"lat":-32.69589237311184,"lng":22.804360140319147}]],"playerGames":[{"player":"slashP","playerId":"5e99af0a97d6cf5854da8470","points":19118,"r1":{"points":4829,"time":10},"r2":{"points":3284,"time":10},"r3":{"points":3485,"time":10},"r4":{"points":4379,"time":10},"r5":{"points":3141,"time":10},"eliminatedInGame":null,"totalDistanceInMeters":2620718.744132781,"totalTime":50,"pinUrl":"pin/7bb34cfa4431b08534fb01bb09093a1d.png"}],"answers":[{"lat":47.36514078388022,"lng":10.19920260555111,"countryCode":"AT","countryName":"Austria"},{"lat":48.35221881542096,"lng":-1.1978899165176244,"countryCode":"FR","countryName":"France"},{"lat":18.87621655428482,"lng":100.2982043944711,"countryCode":"TH","countryName":"Thailand"},{"lat":57.68291976507926,"lng":-6.331300783883876,"countryCode":"GB","countryName":"United Kingdom"},{"lat":-28.60702975024082,"lng":30.459459558241406,"countryCode":"ZA","countryName":"South Africa"}],"mapName":"A Diverse World","gameNumber":2,"gameUrl":"https://www.geoguessr.com/results/tbbZvvUalhQrih0F","gameId":"tbbZvvUalhQrih0F","gameDescription":"10 sec. No move","playedWithEliminations":false,"forbidMoving":true,"forbidRotating":false,"forbidZooming":false,"timeLimit":10},{"allGuesses":[[{"playerName":"slashP","playerId":"5e99af0a97d6cf5854da8470","roundScoreInPoints":3579,"distanceInMeters":619929.1522930771,"time":10,"lat":38.89778020296625,"lng":41.13031627284818}],[{"playerName":"slashP","playerId":"5e99af0a97d6cf5854da8470","roundScoreInPoints":1090,"distanceInMeters":2822543.3157825423,"time":10,"lat":49.65389407254285,"lng":-112.79701195455021}],[{"playerName":"slashP","playerId":"5e99af0a97d6cf5854da8470","roundScoreInPoints":3449,"distanceInMeters":688131.040969282,"time":10,"lat":-43.488605672221674,"lng":172.64554498298656}],[{"playerName":"slashP","playerId":"5e99af0a97d6cf5854da8470","roundScoreInPoints":4065,"distanceInMeters":383879.7539962332,"time":10,"lat":-42.853634723890345,"lng":171.81376100146042}],[{"playerName":"slashP","playerId":"5e99af0a97d6cf5854da8470","roundScoreInPoints":1127,"distanceInMeters":2760780.186177744,"time":10,"lat":-16.08684436716788,"lng":-46.05839081616182}]],"playerGames":[{"player":"slashP","playerId":"5e99af0a97d6cf5854da8470","points":13310,"r1":{"points":3579,"time":10},"r2":{"points":1090,"time":10},"r3":{"points":3449,"time":10},"r4":{"points":4065,"time":10},"r5":{"points":1127,"time":10},"eliminatedInGame":null,"totalDistanceInMeters":7275263.4492188785,"totalTime":50,"pinUrl":"pin/7bb34cfa4431b08534fb01bb09093a1d.png"}],"answers":[{"lat":39.882458622154,"lng":34.02779724618085,"countryCode":"TR","countryName":"Turkey"},{"lat":45.79172350151367,"lng":-75.09133078155452,"countryCode":"CA","countryName":"Canada"},{"lat":-37.61020422949787,"lng":175.1950482269408,"countryCode":"NZ","countryName":"New Zealand"},{"lat":-45.47391240831622,"lng":168.6790499697717,"countryCode":"NZ","countryName":"New Zealand"},{"lat":3.864312845542068,"lng":-61.00011352888782,"countryCode":"BR","countryName":"Brazil"}],"mapName":"A Diverse World","gameNumber":1,"gameUrl":"https://www.geoguessr.com/results/aXTC2olliAg0IFn1","gameId":"aXTC2olliAg0IFn1","gameDescription":"10 sec. No move","playedWithEliminations":false,"forbidMoving":true,"forbidRotating":false,"forbidZooming":false,"timeLimit":10}]}