{"nickname":"cobweb","startTimeUtc":"2021-09-30T21:23:43.50868Z","tournament":{"players":[{"playerId":"5e99af0a97d6cf5854da8470","playerName":"slashP","totalPoints":27078,"games":[{"gamePoints":17355},{"gamePoints":9723}]}]},"games":[{"allGuesses":[[{"playerName":"slashP","playerId":"5e99af0a97d6cf5854da8470","roundScoreInPoints":4100,"distanceInMeters":294845.4941871781,"time":21,"lat":46.033401628932246,"lng":2.1387223044195594}],[{"playerName":"slashP","playerId":"5e99af0a97d6cf5854da8470","roundScoreInPoints":36,"distanceInMeters":7342776.17063388,"time":7,"lat":-1.27377676101645,"lng":36.80485577717337}],[{"playerName":"slashP","playerId":"5e99af0a97d6cf5854da8470","roundScoreInPoints":2907,"distanceInMeters":806438.2014515296,"time":11,"lat":40.182694969113825,"lng":39.487242654987824}],[{"playerName":"slashP","playerId":"5e99af0a97d6cf5854da8470","roundScoreInPoints":2680,"distanceInMeters":926973.5934443544,"time":25,"lat":16.027478911454736,"lng":100.09703419801451}],[{"playerName":"slashP","playerId":"5e99af0a97d6cf5854da8470","roundScoreInPoints":0,"distanceInMeters":14152362.195841132,"time":30,"lat":22.320793444687045,"lng":114.1532224880687}]],"playerGames":[{"player":"slashP","playerId":"5e99af0a97d6cf5854da8470","points":9723,"r1":{"points":4100,"time":21},"r2":{"points":36,"time":7},"r3":{"points":2907,"time":11},"r4":{"points":2680,"time":25},"r5":{"points":0,"time":30},"eliminatedInGame":null,"totalDistanceInMeters":23523395.655558072,"totalTime":94,"pinUrl":"pin/7bb34cfa4431b08534fb01bb09093a1d.png"}],"answers":[{"lat":43.75817067220412,"lng":0.2158664118823273,"countryCode":"FR","countryName":"France"},{"lat":18.41817704818916,"lng":100.9803946228194,"countryCode":"TH","countryName":"Thailand"},{"lat":40.43487889241095,"lng":29.9778177293341,"countryCode":"TR","countryName":"Turkey"},{"lat":7.691191949284101,"lng":100.0399456429003,"countryCode":"TH","countryName":"Thailand"},{"lat":19.15958887517303,"lng":-99.15409650878297,"countryCode":"MX","countryName":"Mexico"}],"mapName":"A Balanced World","gameNumber":2,"gameUrl":"https://www.geoguessr.com/results/OSJIywwNkrbT2ZuB","gameId":"OSJIywwNkrbT2ZuB","gameDescription":"30 sec. No move","playedWithEliminations":false,"forbidMoving":true,"forbidRotating":false,"forbidZooming":false,"timeLimit":30},{"allGuesses":[[{"playerName":"slashP","playerId":"5e99af0a97d6cf5854da8470","roundScoreInPoints":4280,"distanceInMeters":231071.3197488257,"time":4,"lat":2.9422466166516115,"lng":-73.56993662927778}],[{"playerName":"slashP","playerId":"5e99af0a97d6cf5854da8470","roundScoreInPoints":1487,"distanceInMeters":1801836.9833104676,"time":6,"lat":57.20872502916284,"lng":36.94666298727651}],[{"playerName":"slashP","playerId":"5e99af0a97d6cf5854da8470","roundScoreInPoints":2879,"distanceInMeters":819923.093542152,"time":20,"lat":-31.272824641996383,"lng":-59.83162740177721}],[{"playerName":"slashP","playerId":"5e99af0a97d6cf5854da8470","roundScoreInPoints":4918,"distanceInMeters":24572.4988401385,"time":7,"lat":55.57578012531427,"lng":-3.146785799572342}],[{"playerName":"slashP","playerId":"5e99af0a97d6cf5854da8470","roundScoreInPoints":3791,"distanceInMeters":411271.6955719519,"time":8,"lat":50.1010678800889,"lng":7.571104753688985}]],"playerGames":[{"player":"slashP","playerId":"5e99af0a97d6cf5854da8470","points":17355,"r1":{"points":4280,"time":4},"r2":{"points":1487,"time":6},"r3":{"points":2879,"time":20},"r4":{"points":4918,"time":7},"r5":{"points":3791,"time":8},"eliminatedInGame":null,"totalDistanceInMeters":3288675.5910135354,"totalTime":45,"pinUrl":"pin/7bb34cfa4431b08534fb01bb09093a1d.png"}],"answers":[{"lat":3.411390813904464,"lng":-75.59748344735746,"countryCode":"CO","countryName":"Colombia"},{"lat":57.63662193783556,"lng":67.28490057844664,"countryCode":"RU","countryName":"Russia"},{"lat":-34.62857807571801,"lng":-67.66053182009574,"countryCode":"AR","countryName":"Argentina"},{"lat":55.38221179184907,"lng":-3.334910696622919,"countryCode":"GB","countryName":"United Kingdom"},{"lat":53.52785941117691,"lng":9.824524057564567,"countryCode":"DE","countryName":"Germany"}],"mapName":"A Rural World","gameNumber":1,"gameUrl":"https://www.geoguessr.com/results/kcAtkZbhZ5mgzd6n","gameId":"kcAtkZbhZ5mgzd6n","gameDescription":"20 sec. No move","playedWithEliminations":false,"forbidMoving":true,"forbidRotating":false,"forbidZooming":false,"timeLimit":20}]}