{"nickname":"cart","startTimeUtc":"2023-03-02T17:27:22.0001461Z","tournament":{"players":[{"playerId":"5fd7dc712050e80001e974cd","playerName":"Per-Kristian","totalPoints":39541,"games":[{"gamePoints":10636},{"gamePoints":15183},{"gamePoints":13722}]}]},"games":[{"allGuesses":[[{"playerName":"Per-Kristian","playerId":"5fd7dc712050e80001e974cd","roundScoreInPoints":1,"distanceInMeters":15209367.82923704,"time":10,"lat":-37.80233810611427,"lng":-72.72515424786877}],[{"playerName":"Per-Kristian","playerId":"5fd7dc712050e80001e974cd","roundScoreInPoints":3433,"distanceInMeters":697599.4266488026,"time":10,"lat":47.338004944081334,"lng":15.528490206503307}],[{"playerName":"Per-Kristian","playerId":"5fd7dc712050e80001e974cd","roundScoreInPoints":4337,"distanceInMeters":263761.6636030744,"time":6,"lat":62.45943254562067,"lng":10.665958480714494}],[{"playerName":"Per-Kristian","playerId":"5fd7dc712050e80001e974cd","roundScoreInPoints":1504,"distanceInMeters":2228837.3401332134,"time":10,"lat":-0.6411022826155952,"lng":117.36725188342149}],[{"playerName":"Per-Kristian","playerId":"5fd7dc712050e80001e974cd","roundScoreInPoints":4447,"distanceInMeters":217419.7162884735,"time":6,"lat":25.07820057764911,"lng":-101.84178717499998}]],"playerGames":[{"player":"Per-Kristian","playerId":"5fd7dc712050e80001e974cd","points":13722,"r1":{"points":1,"time":10},"r2":{"points":3433,"time":10},"r3":{"points":4337,"time":6},"r4":{"points":1504,"time":10},"r5":{"points":4447,"time":6},"eliminatedInGame":null,"totalDistanceInMeters":18616985.975910604,"totalTime":42,"pinUrl":"pin/830874a5e848b4daba259246f8f8d60d.png"}],"answers":[{"lat":-3.53098884518212,"lng":120.8824321574196,"countryCode":"ID","countryName":"Indonesia"},{"lat":46.12188,"lng":6.5436954,"countryCode":"FR","countryName":"France"},{"lat":60.2576370571997,"lng":12.5083794121666,"countryCode":"SE","countryName":"Sweden"},{"lat":13.118379249480586,"lng":102.66737380559678,"countryCode":"KH","countryName":"Cambodia"},{"lat":26.173903,"lng":-103.63798,"countryCode":"MX","countryName":"Mexico"}],"mapName":"An Arbitrary World","gameNumber":3,"gameUrl":"https://www.geoguessr.com/results/xOe0W1oDavAFE8DY","gameId":"xOe0W1oDavAFE8DY","gameDescription":"10 sec. No move","playedWithEliminations":false,"forbidMoving":true,"forbidRotating":false,"forbidZooming":false,"timeLimit":10},{"allGuesses":[[{"playerName":"Per-Kristian","playerId":"5fd7dc712050e80001e974cd","roundScoreInPoints":4940,"distanceInMeters":22375.7391244731,"time":10,"lat":36.05746840513858,"lng":14.225843229167822}],[{"playerName":"Per-Kristian","playerId":"5fd7dc712050e80001e974cd","roundScoreInPoints":2392,"distanceInMeters":1367895.5382976786,"time":10,"lat":-4.929208137316616,"lng":105.14520555703098}],[{"playerName":"Per-Kristian","playerId":"5fd7dc712050e80001e974cd","roundScoreInPoints":11,"distanceInMeters":11308545.660497587,"time":10,"lat":40.23609704815592,"lng":25.676899062854034}],[{"playerName":"Per-Kristian","playerId":"5fd7dc712050e80001e974cd","roundScoreInPoints":3427,"distanceInMeters":701025.0061957114,"time":10,"lat":14.188399337413303,"lng":100.64887485287852}],[{"playerName":"Per-Kristian","playerId":"5fd7dc712050e80001e974cd","roundScoreInPoints":4413,"distanceInMeters":231723.8511518858,"time":10,"lat":15.403297601837501,"lng":103.97293731633351}]],"playerGames":[{"player":"Per-Kristian","playerId":"5fd7dc712050e80001e974cd","points":15183,"r1":{"points":4940,"time":10},"r2":{"points":2392,"time":10},"r3":{"points":11,"time":10},"r4":{"points":3427,"time":10},"r5":{"points":4413,"time":10},"eliminatedInGame":null,"totalDistanceInMeters":13631565.795267336,"totalTime":50,"pinUrl":"pin/830874a5e848b4daba259246f8f8d60d.png"}],"answers":[{"lat":35.881523,"lng":14.346506,"countryCode":"MT","countryName":"Malta"},{"lat":-8.507176,"lng":116.99884,"countryCode":"ID","countryName":"Indonesia"},{"lat":-1.268197,"lng":-78.62188,"countryCode":"EC","countryName":"Ecuador"},{"lat":8.10514802778132,"lng":98.9607458234549,"countryCode":"TH","countryName":"Thailand"},{"lat":13.319443,"lng":103.992714,"countryCode":"KH","countryName":"Cambodia"}],"mapName":"An Arbitrary World","gameNumber":2,"gameUrl":"https://www.geoguessr.com/results/Ky6gN6a2C10o2rTm","gameId":"Ky6gN6a2C10o2rTm","gameDescription":"10 sec. No move","playedWithEliminations":false,"forbidMoving":true,"forbidRotating":false,"forbidZooming":false,"timeLimit":10},{"allGuesses":[[{"playerName":"Per-Kristian","playerId":"5fd7dc712050e80001e974cd","roundScoreInPoints":2996,"distanceInMeters":761152.2035987562,"time":10,"lat":-14.228758274024829,"lng":-42.478983606133056}],[{"playerName":"Per-Kristian","playerId":"5fd7dc712050e80001e974cd","roundScoreInPoints":1988,"distanceInMeters":1371103.2596708909,"time":10,"lat":54.73376724881921,"lng":55.63329615461265}],[{"playerName":"Per-Kristian","playerId":"5fd7dc712050e80001e974cd","roundScoreInPoints":1127,"distanceInMeters":2214215.3666370655,"time":10,"lat":-32.36708178288111,"lng":-57.42097881873582}],[{"playerName":"Per-Kristian","playerId":"5fd7dc712050e80001e974cd","roundScoreInPoints":19,"distanceInMeters":8312665.094165373,"time":10,"lat":37.09623237682046,"lng":-96.91629052136943}],[{"playerName":"Per-Kristian","playerId":"5fd7dc712050e80001e974cd","roundScoreInPoints":4506,"distanceInMeters":154788.0675347452,"time":7,"lat":12.711156806983542,"lng":104.43995030112842}]],"playerGames":[{"player":"Per-Kristian","playerId":"5fd7dc712050e80001e974cd","points":10636,"r1":{"points":2996,"time":10},"r2":{"points":1988,"time":10},"r3":{"points":1127,"time":10},"r4":{"points":19,"time":10},"r5":{"points":4506,"time":7},"eliminatedInGame":null,"totalDistanceInMeters":12813923.991606832,"totalTime":47,"pinUrl":"pin/830874a5e848b4daba259246f8f8d60d.png"}],"answers":[{"lat":-20.36667842772519,"lng":-45.6548375504243,"countryCode":"BR","countryName":"Brazil"},{"lat":62.2459061999148,"lng":74.52640163743114,"countryCode":"RU","countryName":"Russian Federation (the)"},{"lat":-50.282319995028665,"lng":-69.16657100435276,"countryCode":"AR","countryName":"Argentina"},{"lat":59.16695467166157,"lng":31.67564891375203,"countryCode":"RU","countryName":"Russian Federation (the)"},{"lat":13.452492384124266,"lng":103.23032656892134,"countryCode":"KH","countryName":"Cambodia"}],"mapName":"A Balanced World","gameNumber":1,"gameUrl":"https://www.geoguessr.com/results/aLx0QEOqSle7lxx1","gameId":"aLx0QEOqSle7lxx1","gameDescription":"10 sec. No move","playedWithEliminations":false,"forbidMoving":true,"forbidRotating":false,"forbidZooming":false,"timeLimit":10}]}